Obs#,Time,Date,configName,configAuthor,remark,Observation,ID,,Fs,Fm',PhiPS2,gsw,gbw,gtw,E_apparent,VPcham,VPref,VPleaf,VPDleaf,H2O_r,H2O_s,H2O_leaf,leaf_area,flashID,Fo,Fm,Fv/Fm,PS2/1,abs,ETR,rh_s,rh_r,Tref,Tleaf,P_atm,flow,flow_s,leak_pct,Qamb,batt,pitch,roll,heading,angle_inc_leaf,direct_pct,slope_leaf,az_leaf,dec_solar,az_solar,zenith_solar,gps_time,gps_date,latitude,longitude,altitude,gps_sats,gps_HDOP,match_time,match_date,rh_adj,gsw1sec,gsw2sec,gsw4sec,flr1sec,flr2sec,flr4sec,auto,flow_set,gsw_limit,gsw_period,dark,flash_type,flash_intensity,modrate,flr_limit,flr_period,P1_dur,P2_dur,P3_dur,P1_Fmax,P2_ramp,P2_slp,P3_Fmax,P3_Pred,P3_DeltaF,v_humA,v_humB,v_flowIn,v_flowOut,v_temp,v_irt,v_pres,v_par,v_F,i_LED,b_rhr,m_rhr,span_rhr,b_rhs,m_rhs,span_rhs,z_flowIn,z_flowOut,z_quantum,z_flr,flashId,lciSerNum,lcpSerNum,lcfSerNum,lcrhSerNum,version,configUpdatedAt
1,5:10:39,9/1/22,Manual gsw+F,LI-COR Default,,1,LCOR-316,,121.460434,506.760834,0.76032,16.646921,2.916368,2.481615,7.958588,1.291366,1.066922,1.610306,0.31894,10.573901,12.798282,15.959188,0.441786,PSF-00336_20220901051039,0,0,0,0.5,0.8,0.623698,58.46,48.3,19.03,14.06,100.9,156,156.4,-0.2,2,4.102,-7,172,85,,,,,,,,0:00:00,0000-00-00,0,0,0,0,0,5:04:06,9/1/22,-0.46,0.114,0.119,-0.034,0.003,-0.171,-0.757,0,150,-9999,-9999,0,mpf,7000,500,-9999,-9999,300,300,300,506.760834,25,23.566608,517.166382,540.427795,-23.261414,2.464612,2.467017,1.656234,0.930306,0.346462,-0.053963,0.116462,0.108645,121.460434,0.00134,2.386067,-0.000044,1,2.373562,-0.000053,1,0.600878,0.600715,0.106777,0,PSF-00336_20220901051039,PFA-00364,PSA-00381,PSF-00336,RHS-00170,2.0.0,2021-01-19T12:57:14.097Z
2,5:13:30,9/1/22,Manual gsw+F,LI-COR Default,,2,LCOR-304,,172.925232,514.30249,0.663767,66.526855,2.91602,2.793571,7.378756,1.267747,1.05952,1.530603,0.262856,10.499051,12.562428,15.167141,0.441786,PSF-00336_20220901051330,0,0,0,0.5,0.8,1.281035,61.69,51.56,17.87,13.28,100.92,156,155,0.6,5,4.099,18,175,79,,,,,,,,0:00:00,0000-00-00,0,0,0,0,0,5:04:06,9/1/22,-0.46,-1.254,-1.589,-1.907,-0.544,-0.625,-0.687,0,150,-9999,-9999,0,mpf,7000,500,-9999,-9999,300,300,300,514.30249,25,19.775665,523.368347,542.553772,-19.185425,2.469449,2.471786,1.655867,0.926785,0.362933,-0.04934,0.133427,0.111171,172.925232,0.001469,2.386067,-0.000044,1,2.373562,-0.000053,1,0.600878,0.600715,0.106777,0,PSF-00336_20220901051330,PFA-00364,PSA-00381,PSF-00336,RHS-00170,2.0.0,2021-01-19T12:57:14.097Z
3,5:15:36,9/1/22,Manual gsw+F,LI-COR Default,,3,LCOR-439,,136.580231,524.198059,0.739449,16.234394,2.916447,2.472306,6.164068,1.24498,1.071041,1.493187,0.248207,10.612691,12.336212,14.795635,0.441786,PSF-00336_20220901051536,0,0,0,0.5,0.8,1.254863,63.49,54.62,17.13,12.9,100.92,156.1,156.7,-0.4,4,4.096,-38,-159,83,,,,,,,,0:00:00,0000-00-00,0,0,0,0,0,5:15:23,9/1/22,-0.56,0.105,0.181,1.036,-0.61,-0.957,-0.271,0,150,-9999,-9999,0,mpf,7000,500,-9999,-9999,300,300,300,524.198059,25,19.8158,533.51355,552.506714,-18.993164,2.473862,2.4746,1.656318,0.930991,0.373934,-0.045109,0.145529,0.110641,136.580231,0.001989,2.386067,-0.000044,1,2.373562,-0.000053,1,0.600878,0.600715,0.106777,0,PSF-00336_20220901051536,PFA-00364,PSA-00381,PSF-00336,RHS-00170,2.0.0,2021-01-19T12:57:14.097Z
4,5:17:09,9/1/22,Manual gsw+F,LI-COR Default,,4,LCOR-234,,192.618378,545.489807,0.646889,14.853445,2.916937,2.438134,6.314465,1.224127,1.04597,1.482003,0.257876,10.363963,12.129226,14.68438,0.441786,PSF-00336_20220901051709,0,0,0,0.5,0.8,0.252771,64.57,55.17,16.6,12.78,100.92,156.1,156.4,-0.2,1,4.095,-59,-92,11,,,,,,,,0:00:00,0000-00-00,0,0,0,0,0,5:15:23,9/1/22,-0.56,-0.096,-0.291,-0.638,-0.796,-0.973,1.227,0,150,-9999,-9999,0,mpf,7000,500,-9999,-9999,300,300,300,545.489807,25,21.227827,554.652222,575.815613,-21.163391,2.474768,2.476225,1.656836,0.930236,0.382021,-0.040451,0.153913,0.107667,192.618378,0.002,2.386067,-0.000044,1,2.373562,-0.000053,1,0.600878,0.600715,0.106777,0,PSF-00336_20220901051709,PFA-00364,PSA-00381,PSF-00336,RHS-00170,2.0.0,2021-01-19T12:57:14.097Z
5,5:19:00,9/1/22,Manual gsw+F,LI-COR Default,,5,LCOR-461,,195.218323,530.952209,0.632324,96.831673,2.918063,2.832699,6.244062,1.221459,1.045474,1.440947,0.219487,10.361026,12.105102,14.280301,0.441786,PSF-00336_20220901051900,0,0,0,0.5,0.8,0.075466,67.02,57.37,15.98,12.36,100.9,156.3,156.5,-0.2,0,4.092,-77,-61,326,,,,,,,,0:00:00,0000-00-00,0,0,0,0,0,5:15:23,9/1/22,-0.56,12.095,13.478,5.024,-0.593,-0.179,1.322,0,150,-9999,-9999,0,mpf,7000,500,-9999,-9999,300,300,300,530.952209,25,20.640394,539.438721,560.438843,-21.000122,2.47794,2.479732,1.658029,0.930665,0.391667,-0.038138,0.16378,0.107049,195.218323,0.002412,2.386067,-0.000044,1,2.373562,-0.000053,1,0.600878,0.600715,0.106777,0,PSF-00336_20220901051900,PFA-00364,PSA-00381,PSF-00336,RHS-00170,2.0.0,2021-01-19T12:57:14.097Z
6,5:20:47,9/1/22,Manual gsw+F,LI-COR Default,,6,LCOR-519,,188.942307,548.953064,0.655813,13.823972,2.915814,2.407924,5.19991,1.193772,1.046892,1.408898,0.215126,10.373485,11.82889,13.960543,0.441786,PSF-00336_20220901052047,0,0,0,0.5,0.8,0.342368,68.05,59.68,15.39,12.01,100.92,156,156.4,-0.3,1,4.088,-61,-105,15,,,,,,,,0:00:00,0000-00-00,0,0,0,0,0,5:15:23,9/1/22,-0.56,-0.024,0.07,-0.095,-0.852,-0.904,1.196,0,150,-9999,-9999,0,mpf,7000,500,-9999,-9999,300,300,300,548.953064,25,21.205935,558.418762,579.24762,-20.828857,2.481244,2.481298,1.65565,0.930386,0.401162,-0.035203,0.173066,0.107966,188.942307,0.002507,2.386067,-0.000044,1,2.373562,-0.000053,1,0.600878,0.600715,0.106777,0,PSF-00336_20220901052047,PFA-00364,PSA-00381,PSF-00336,RHS-00170,2.0.0,2021-01-19T12:57:14.097Z
7,5:22:50,9/1/22,Manual gsw+F,LI-COR Default,,7,LCOR-032,,172.145599,498.770721,0.65486,113.036476,2.914806,2.841533,5.302106,1.212153,1.062312,1.398007,0.185855,10.527396,12.012306,13.854106,0.441786,PSF-00336_20220901052250,0,0,0,0.5,0.8,0.088338,71.52,62.68,14.85,11.9,100.91,155.9,156.5,-0.4,0,4.086,-72,-69,316,,,,,,,,0:00:00,0000-00-00,0,0,0,0,0,5:15:23,9/1/22,-0.56,-14.927,40.688,58.182,-0.408,-0.254,1.651,0,150,-9999,-9999,0,mpf,7000,500,-9999,-9999,300,300,300,498.770721,25,18.214045,507.233612,524.791077,-17.557465,2.48545,2.486122,1.654587,0.930561,0.40993,-0.03057,0.183542,0.107084,172.145599,0.002659,2.386067,-0.000044,1,2.373562,-0.000053,1,0.600878,0.600715,0.106777,0,PSF-00336_20220901052250,PFA-00364,PSA-00381,PSF-00336,RHS-00170,2.0.0,2021-01-19T12:57:14.097Z
8,5:24:28,9/1/22,Manual gsw+F,LI-COR Default,,8,LCOR-492,,191.725372,546.445374,0.649141,67.051796,2.91638,2.794821,4.836994,1.185832,1.049263,1.358281,0.172449,10.397699,11.751034,13.459916,0.441786,PSF-00336_20220901052428,0,0,0,0.5,0.8,3.02692,71.57,63.33,14.5,11.46,100.91,156,156.5,-0.3,12,4.083,-22,179,276,,,,,,,,0:00:00,0000-00-00,0,0,0,0,0,5:15:23,9/1/22,-0.56,-20.089,-2.486,9.4,-3.848,-6.917,-8.99,0,150,-9999,-9999,0,mpf,7000,500,-9999,-9999,300,300,300,546.445374,25,21.457691,555.195801,577.099609,-21.903809,2.48642,2.486294,1.656247,0.930562,0.415745,-0.031322,0.192106,0.117395,198.463791,0.002748,2.386067,-0.000044,1,2.373562,-0.000053,1,0.600878,0.600715,0.106777,0,PSF-00336_20220901052428,PFA-00364,PSA-00381,PSF-00336,RHS-00170,2.0.0,2021-01-19T12:57:14.097Z
9,5:25:51,9/1/22,Manual gsw+F,LI-COR Default,,9,LCOR-523,,207.522507,598.472717,0.653246,-79.229996,2.916026,3.02745,5.274711,1.164797,1.015804,1.338428,0.173631,10.066638,11.543161,13.263845,0.441786,PSF-00336_20220901052551,0,0,0,0.5,0.8,0.779538,71.63,62.47,14.21,11.24,100.91,156,157,-0.6,3,4.081,-43,-140,87,,,,,,,,0:00:00,0000-00-00,0,0,0,0,0,5:15:23,9/1/22,-0.56,1.607,-0.028,27.228,-1.298,-2.723,-0.854,0,150,-9999,-9999,0,mpf,7000,500,-9999,-9999,300,300,300,598.472717,25,23.811068,609.189026,632.488953,-23.299927,2.485362,2.486471,1.655873,0.931762,0.420631,-0.030486,0.198827,0.109494,211.436386,0.002734,2.386067,-0.000044,1,2.373562,-0.000053,1,0.600878,0.600715,0.106777,0,PSF-00336_20220901052551,PFA-00364,PSA-00381,PSF-00336,RHS-00170,2.0.0,2021-01-19T12:57:14.097Z
10,5:27:46,9/1/22,Manual gsw+F,LI-COR Default,,10,LCOR-025,,208.822845,570.778748,0.634144,-3962.120117,2.918269,2.92042,4.963639,1.134962,0.994966,1.304391,0.169428,9.86042,11.24783,12.926918,0.441786,PSF-00336_20220901052746,0,0,0,0.5,0.8,0.457646,71.7,62.85,13.79,10.85,100.9,156.3,157.2,-0.6,2,4.079,-39,-78,292,,,,,,,,0:00:00,0000-00-00,0,0,0,0,0,5:26:52,9/1/22,-0.71,-7914.543,77.901,-1121.287,-0.451,-0.661,1.25,0,150,-9999,-9999,0,mpf,7000,500,-9999,-9999,300,300,300,570.778748,25,20.968773,579.959778,600.734497,-20.774719,2.486003,2.486893,1.658247,0.932303,0.427695,-0.030037,0.207456,0.10842,208.822845,0.002753,2.386067,-0.000044,1,2.373562,-0.000053,1,0.600878,0.600715,0.106777,0,PSF-00336_20220901052746,PFA-00364,PSA-00381,PSF-00336,RHS-00170,2.0.0,2021-01-19T12:57:14.097Z
11,5:29:36,9/1/22,Manual gsw+F,LI-COR Default,,11,LCOR-102,,149.620407,528.972717,0.717149,26.475563,2.915242,2.626083,4.480335,1.138852,1.012188,1.308921,0.170069,10.030873,11.286129,12.971527,0.441786,PSF-00336_20220901052936,0,0,0,0.5,0.8,0.191355,74.05,65.81,13.35,10.9,100.91,155.9,156.7,-0.5,1,4.077,-83,-156,47,,,,,,,,0:00:00,0000-00-00,0,0,0,0,0,5:26:52,9/1/22,-0.71,-1.348,0.654,-0.74,-0.29,-0.101,1.395,0,150,-9999,-9999,0,mpf,7000,500,-9999,-9999,300,300,300,528.972717,25,19.538504,538.484558,556.885193,-18.400635,2.490088,2.490156,1.655047,0.93118,0.435382,-0.024705,0.215685,0.107385,149.620407,0.002874,2.386067,-0.000044,1,2.373562,-0.000053,1,0.600878,0.600715,0.106777,0,PSF-00336_20220901052936,PFA-00364,PSA-00381,PSF-00336,RHS-00170,2.0.0,2021-01-19T12:57:14.097Z
12,5:31:20,9/1/22,Manual gsw+F,LI-COR Default,,12,LCOR-155,,213.974472,560.271973,0.618088,-30.676958,2.916768,3.223234,4.547269,1.141628,1.013246,1.282257,0.140629,10.042679,11.315124,12.708956,0.441786,PSF-00336_20220901053120,0,0,0,0.5,0.8,0.875045,75.93,67.39,13,10.59,100.89,156.1,156.9,-0.5,4,4.073,-51,-118,27,,,,,,,,0:00:00,0000-00-00,0,0,0,0,0,5:26:52,9/1/22,-0.71,-0.823,-0.643,-1.007,-0.467,-0.544,1.378,0,150,-9999,-9999,0,mpf,7000,500,-9999,-9999,300,300,300,560.271973,25,16.885937,567.212097,584.39502,-17.182922,2.49229,2.492756,1.656657,0.931641,0.441503,-0.024175,0.223578,0.110001,213.974472,0.002904,2.386067,-0.000044,1,2.373562,-0.000053,1,0.600878,0.600715,0.106777,0,PSF-00336_20220901053120,PFA-00364,PSA-00381,PSF-00336,RHS-00170,2.0.0,2021-01-19T12:57:14.097Z
13,5:33:13,9/1/22,Manual gsw+F,LI-COR Default,,13,LCOR-490,,169.035309,560.241211,0.698281,41.395771,2.914991,2.723228,3.934832,1.116382,1.00508,1.260483,0.144101,9.959347,11.062237,12.490135,0.441786,PSF-00336_20220901053313,0,0,0,0.5,0.8,2.848406,75.71,68.16,12.71,10.34,100.92,155.9,156.8,-0.6,10,4.069,-31,-166,103,,,,,,,,0:00:00,0000-00-00,0,0,0,0,0,5:26:52,9/1/22,-0.71,-11.922,-20.956,-163.319,-1.917,-2.83,1.063,0,150,-9999,-9999,0,mpf,7000,500,-9999,-9999,300,300,300,560.241211,25,23.190798,569.908997,593.371338,-23.462341,2.4934,2.492558,1.654782,0.931202,0.446807,-0.023641,0.23217,0.116065,169.035309,0.002934,2.386067,-0.000044,1,2.373562,-0.000053,1,0.600878,0.600715,0.106777,0,PSF-00336_20220901053313,PFA-00364,PSA-00381,PSF-00336,RHS-00170,2.0.0,2021-01-19T12:57:14.097Z
14,5:35:27,9/1/22,Manual gsw+F,LI-COR Default,,14,LCOR-374,,163.570053,543.082947,0.698812,6.79634,2.915869,2.040446,3.150461,1.122428,1.033391,1.276376,0.153948,10.24113,11.123506,12.649158,0.441786,PSF-00336_20220901053527,0,0,0,0.5,0.8,1.181181,77.42,71.28,12.45,10.52,100.91,156,139.8,10.4,4,4.068,-45,-177,18,,,,,,,,0:00:00,0000-00-00,0,0,0,0,0,5:26:52,9/1/22,-0.71,-0.176,-0.311,-1.24,-1.058,-1.481,0.396,0,150,-9999,-9999,0,mpf,7000,500,-9999,-9999,300,300,300,543.082947,25,22.326069,553.619751,574.977722,-21.357971,2.497581,2.494894,1.655707,0.889466,0.451469,-0.018912,0.242162,0.110626,163.570053,0.003007,2.386067,-0.000044,1,2.373562,-0.000053,1,0.600878,0.600715,0.106777,0,PSF-00336_20220901053527,PFA-00364,PSA-00381,PSF-00336,RHS-00170,2.0.0,2021-01-19T12:57:14.097Z
15,5:37:02,9/1/22,Manual gsw+F,LI-COR Default,,15,LCOR-232,,207.367294,561.996826,0.631017,13.131684,2.916459,2.386446,3.298793,1.136423,1.043257,1.27423,0.137807,10.339616,11.262978,12.628769,0.441786,PSF-00336_20220901053702,0,0,0,0.5,0.8,0.088987,78.83,72.37,12.36,10.5,100.9,156.1,156.6,-0.4,0,4.066,-53,-103,351,,,,,,,,0:00:00,0000-00-00,0,0,0,0,0,5:26:52,9/1/22,-0.71,-0.152,-1.141,-2.428,-0.242,-0.178,2.148,0,150,-9999,-9999,0,mpf,7000,500,-9999,-9999,300,300,300,561.996826,25,19.866882,570.068848,590.378418,-20.30957,2.499027,2.496768,1.656331,0.930832,0.453021,-0.018255,0.249724,0.107098,207.367294,0.00332,2.386067,-0.000044,1,2.373562,-0.000053,1,0.600878,0.600715,0.106777,0,PSF-00336_20220901053702,PFA-00364,PSA-00381,PSF-00336,RHS-00170,2.0.0,2021-01-19T12:57:14.097Z
16,5:38:58,9/1/22,Manual gsw+F,LI-COR Default,,16,LCOR-419,,184.386856,554.352905,0.667384,15.88093,2.916224,2.463796,3.358351,1.141978,1.047118,1.277861,0.135883,10.377963,11.318116,12.664851,0.441786,PSF-00336_20220901053858,0,0,0,0.5,0.8,0.091704,79.44,72.84,12.32,10.54,100.9,156,153.9,1.4,0,4.061,-85,97,176,,,,,,,,0:00:00,0000-00-00,0,0,0,0,0,5:37:53,9/1/22,-0.98,-0.429,-0.594,-1.391,-0.445,-0.339,2.344,0,150,-9999,-9999,0,mpf,7000,500,-9999,-9999,300,300,300,554.352905,25,20.224449,563.282104,583.2453,-19.963196,2.499661,2.49794,1.656083,0.923997,0.453814,-0.017344,0.258781,0.10709,184.386856,0.004083,2.386067,-0.000044,1,2.373562,-0.000053,1,0.600878,0.600715,0.106777,0,PSF-00336_20220901053858,PFA-00364,PSA-00381,PSF-00336,RHS-00170,2.0.0,2021-01-19T12:57:14.097Z
17,5:41:54,9/1/22,Manual gsw+F,LI-COR Default,,17,LCOR-453,,158.656601,517.149231,0.693209,-51.005135,2.915208,3.091927,3.568866,1.143703,1.042806,1.258793,0.11509,10.33394,11.333808,12.47432,0.441786,PSF-00336_20220901054154,0,0,0,0.5,0.8,0.426345,80.1,73.03,12.22,10.32,100.91,155.9,157.1,-0.8,2,4.058,-44,169,121,,,,,,,,0:00:00,0000-00-00,0,0,0,0,0,5:37:53,9/1/22,-0.98,-6.407,-7.228,-8.781,-0.222,0.197,2.615,0,150,-9999,-9999,0,mpf,7000,500,-9999,-9999,300,300,300,517.149231,25,21.778772,527.50647,548.262146,-20.755676,2.499946,2.498837,1.65501,0.932157,0.455698,-0.018579,0.271631,0.108177,158.656601,0.003637,2.386067,-0.000044,1,2.373562,-0.000053,1,0.600878,0.600715,0.106777,0,PSF-00336_20220901054154,PFA-00364,PSA-00381,PSF-00336,RHS-00170,2.0.0,2021-01-19T12:57:14.097Z
18,5:43:17,9/1/22,Manual gsw+F,LI-COR Default,,18,LCOR-223,,154.927963,547.370178,0.716959,16.130104,2.915939,2.469511,3.237693,1.114205,1.022681,1.24498,0.130775,10.132932,11.039766,12.33551,0.441786,PSF-00336_20220901054317,0,0,0,0.5,0.8,0.502886,78.43,71.98,12.14,10.15,100.93,156,157.1,-0.7,2,4.057,29,-156,131,,,,,,,,0:00:00,0000-00-00,0,0,0,0,0,5:37:53,9/1/22,-0.98,0.081,-0.891,-2.05,-1.714,-2.461,0.202,0,150,-9999,-9999,0,mpf,7000,500,-9999,-9999,300,300,300,547.370178,25,22.172827,557.006836,579.046021,-22.039185,2.498599,2.496668,1.655782,0.932138,0.457091,-0.019477,0.27702,0.108374,154.927963,0.003583,2.386067,-0.000044,1,2.373562,-0.000053,1,0.600878,0.600715,0.106777,0,PSF-00336_20220901054317,PFA-00364,PSA-00381,PSF-00336,RHS-00170,2.0.0,2021-01-19T12:57:14.097Z
19,5:44:52,9/1/22,Manual gsw+F,LI-COR Default,,19,LCOR-159,,208.886505,579.078918,0.639278,13.381529,2.91335,2.392474,3.040191,1.132516,1.04642,1.259241,0.126725,10.368606,11.221698,12.477371,0.441786,PSF-00336_20220901054452,0,0,0,0.5,0.8,0.070071,80.38,74.27,12.02,10.32,100.92,155.7,157.1,-0.9,0,4.054,-84,-177,33,,,,,,,,0:00:00,0000-00-00,0,0,0,0,0,5:37:53,9/1/22,-0.98,-0.259,-1.343,-1.67,-0.425,-0.329,2.06,0,150,-9999,-9999,0,mpf,7000,500,-9999,-9999,300,300,300,579.078918,25,18.38553,586.45752,605.344299,-18.88678,2.501611,2.499259,1.653058,0.931963,0.459398,-0.016362,0.28288,0.107027,208.886505,0.003529,2.386067,-0.000044,1,2.373562,-0.000053,1,0.600878,0.600715,0.106777,0,PSF-00336_20220901054452,PFA-00364,PSA-00381,PSF-00336,RHS-00170,2.0.0,2021-01-19T12:57:14.097Z
20,5:47:01,9/1/22,Manual gsw+F,LI-COR Default,,20,LCOR-153,,159.415848,538.891174,0.704178,8.957741,2.916277,2.200035,2.713665,1.137625,1.06096,1.260624,0.122999,10.513137,11.272817,12.491625,0.441786,PSF-00336_20220901054701,0,0,0,0.5,0.8,0.641128,81.2,75.72,11.93,10.34,100.92,156,156.5,-0.3,2,4.052,-57,-101,354,,,,,,,,0:00:00,0000-00-00,0,0,0,0,0,5:37:53,9/1/22,-0.98,-0.248,-0.031,-0.956,0.011,0.619,3.447,0,150,-9999,-9999,0,mpf,7000,500,-9999,-9999,300,300,300,538.891174,25,23.256474,550.001648,572.115112,-22.113464,2.50353,2.500355,1.656139,0.930532,0.460984,-0.015271,0.291255,0.10885,160.213715,0.003577,2.386067,-0.000044,1,2.373562,-0.000053,1,0.600878,0.600715,0.106777,0,PSF-00336_20220901054701,PFA-00364,PSA-00381,PSF-00336,RHS-00170,2.0.0,2021-01-19T12:57:14.097Z
21,5:49:17,9/1/22,Manual gsw+F,LI-COR Default,,21,LCOR-509,,159.934753,438.981781,0.635669,-3.813722,2.914835,12.36681,4.856663,1.219183,1.081937,1.258327,0.039144,10.721459,12.081491,12.469389,0.441786,PSF-00336_20220901054917,0,0,0,0.5,0.8,0.76615,86.87,77.09,11.96,10.31,100.91,155.9,-16.5,110.6,3,4.048,-65,-151,54,,,,,,,,0:00:00,0000-00-00,0,0,0,0,0,5:48:07,9/1/22,-0.95,0.02,0.032,0.045,-0.077,0.105,3.043,0,150,-9999,-9999,0,mpf,7000,500,-9999,-9999,300,300,300,438.981781,25,15.919045,446.089264,461.723541,-15.634277,2.505281,2.507649,1.654618,0.572523,0.46049,-0.015841,0.300449,0.109521,159.934753,0.003613,2.386067,-0.000044,1,2.373562,-0.000053,1,0.600878,0.600715,0.106777,0,PSF-00336_20220901054917,PFA-00364,PSA-00381,PSF-00336,RHS-00170,2.0.0,2021-01-19T12:57:14.097Z
22,5:50:46,9/1/22,Manual gsw+F,LI-COR Default,,22,LCOR-466,,142.847656,548.737793,0.73968,38.480217,2.916858,2.711335,2.717535,1.148254,1.071518,1.248207,0.099953,10.617157,11.377493,12.36788,0.441786,PSF-00336_20220901055046,0,0,0,0.5,0.8,0.278921,81.89,76.42,11.94,10.19,100.92,156.1,156.8,-0.4,1,4.046,7,174,112,,,,,,,,0:00:00,0000-00-00,0,0,0,0,0,5:48:07,9/1/22,-0.95,-9.778,-37.387,128.264,-1.027,-2.169,-1.988,0,150,-9999,-9999,0,mpf,7000,500,-9999,-9999,300,300,300,548.737793,25,26.441742,561.128845,586.512146,-25.383301,2.504425,2.501208,1.656753,0.931289,0.460768,-0.016935,0.306065,0.107636,142.847656,0.002378,2.386067,-0.000044,1,2.373562,-0.000053,1,0.600878,0.600715,0.106777,0,PSF-00336_20220901055046,PFA-00364,PSA-00381,PSF-00336,RHS-00170,2.0.0,2021-01-19T12:57:14.097Z
23,5:52:49,9/1/22,Manual gsw+F,LI-COR Default,,23,LCOR-555,,135.254852,507.071259,0.733263,-35.601254,2.917112,3.177469,3.017445,1.123038,1.037814,1.217785,0.094746,10.281343,11.125636,12.064263,0.441786,PSF-00336_20220901055249,0,0,0,0.5,0.8,0.357579,80.58,74.46,11.85,9.82,100.94,156.1,157,-0.5,1,4.044,33,-166,87,,,,,,,,0:00:00,0000-00-00,0,0,0,0,0,5:48:07,9/1/22,-0.95,1.106,1.134,-0.447,-0.091,0.178,3.439,0,150,-9999,-9999,0,mpf,7000,500,-9999,-9999,300,300,300,507.071259,25,23.617691,517.855896,540.811218,-22.955322,2.501918,2.499522,1.657021,0.931751,0.46246,-0.019777,0.313132,0.107887,135.254852,0.002389,2.386067,-0.000044,1,2.373562,-0.000053,1,0.600878,0.600715,0.106777,0,PSF-00336_20220901055249,PFA-00364,PSA-00381,PSF-00336,RHS-00170,2.0.0,2021-01-19T12:57:14.097Z
24,5:53:59,9/1/22,Manual gsw+F,LI-COR Default,,24,LCOR-447,,153.392319,543.234253,0.717631,5.245841,2.914897,1.873738,2.243261,1.142132,1.078686,1.261521,0.119389,10.688019,11.316665,12.499619,0.441786,PSF-00336_20220901055359,0,0,0,0.5,0.8,0.304871,82.34,77.77,11.78,10.35,100.92,155.9,155,0.6,1,4.041,-50,178,0,,,,,,,,0:00:00,0000-00-00,0,0,0,0,0,5:48:07,9/1/22,-0.95,-0.094,-0.445,-1.592,-0.579,-0.22,6.433,0,150,-9999,-9999,0,mpf,7000,500,-9999,-9999,300,300,300,543.234253,25,25.281473,554.798096,579.351074,-24.552979,2.506212,2.501841,1.654684,0.926772,0.463807,-0.01353,0.317007,0.107744,155.070663,0.002178,2.386067,-0.000044,1,2.373562,-0.000053,1,0.600878,0.600715,0.106777,0,PSF-00336_20220901055359,PFA-00364,PSA-00381,PSF-00336,RHS-00170,2.0.0,2021-01-19T12:57:14.097Z
25,5:56:38,9/1/22,Manual gsw+F,LI-COR Default,,25,LCOR-270,,154.082184,585.883484,0.737009,5.012041,2.917082,1.843903,2.166763,1.153064,1.091893,1.270238,0.117174,10.818748,11.424848,12.585836,0.441786,PSF-00336_20220901055638,0,0,0,0.5,0.8,6.721201,83.59,79.16,11.69,10.45,100.93,156.1,152.3,2.5,23,4.038,-41,-112,57,,,,,,,,0:00:00,0000-00-00,0,0,0,0,0,5:48:07,9/1/22,-0.95,-0.023,-0.111,-0.309,0.936,1.347,2.394,0,150,-9999,-9999,0,mpf,7000,500,-9999,-9999,300,300,300,585.883484,25,25.004175,597.64447,621.604187,-23.959717,2.508025,2.50349,1.656989,0.92007,0.465373,-0.011555,0.326101,0.127542,154.082184,0.002266,2.386067,-0.000044,1,2.373562,-0.000053,1,0.600878,0.600715,0.106777,0,PSF-00336_20220901055638,PFA-00364,PSA-00381,PSF-00336,RHS-00170,2.0.0,2021-01-19T12:57:14.097Z
26,5:58:42,9/1/22,Manual gsw+F,LI-COR Default,,26,LCOR-477,,166.614883,512.802612,0.67509,12.211095,2.915381,2.353489,2.38266,1.149645,1.082282,1.250614,0.100968,10.722829,11.390236,12.390594,0.441786,PSF-00336_20220901055842,0,0,0,0.5,0.8,0.352325,83.57,78.67,11.65,10.22,100.93,155.9,156.5,-0.4,1,4.036,-21,179,274,,,,,,,,0:00:00,0000-00-00,0,0,0,0,0,5:48:07,9/1/22,-0.95,-0.601,-1.095,-3.25,-1.401,-1.793,3.272,0,150,-9999,-9999,0,mpf,7000,500,-9999,-9999,300,300,300,512.802612,25,21.797016,522.512939,543.941589,-21.42865,2.507417,2.503475,1.655193,0.930538,0.466141,-0.013542,0.332962,0.107965,166.614883,0.002337,2.386067,-0.000044,1,2.373562,-0.000053,1,0.600878,0.600715,0.106777,0,PSF-00336_20220901055842,PFA-00364,PSA-00381,PSF-00336,RHS-00170,2.0.0,2021-01-19T12:57:14.097Z
27,6:00:11,9/1/22,Manual gsw+F,LI-COR Default,,27,LCOR-615,,148.097641,539.19696,0.725337,5.536143,2.914595,1.909373,2.090949,1.137345,1.078187,1.246567,0.109223,10.682519,11.268648,12.350813,0.441786,PSF-00336_20220901060011,0,0,0,0.5,0.8,5.60233,82.8,78.5,11.63,10.17,100.93,155.8,157.1,-0.8,19,4.035,-39,-177,108,,,,,,,,0:00:00,0000-00-00,0,0,0,0,0,5:59:47,9/1/22,-0.81,-0.164,-0.383,-0.607,-0.164,-0.032,3.732,0,150,-9999,-9999,0,mpf,7000,500,-9999,-9999,300,300,300,539.19696,25,25.53323,551.110291,575.673462,-24.563171,2.507198,2.502317,1.654365,0.932067,0.466581,-0.013794,0.337833,0.124364,148.097641,0.00223,2.386067,-0.000044,1,2.373562,-0.000053,1,0.600878,0.600715,0.106777,0,PSF-00336_20220901060011,PFA-00364,PSA-00381,PSF-00336,RHS-00170,2.0.0,2021-01-19T12:57:14.097Z
28,6:01:57,9/1/22,Manual gsw+F,LI-COR Default,,28,LCOR-440,,144.450546,509.27066,0.716358,7.324114,2.915389,2.08532,2.032674,1.14615,1.088681,1.243369,0.097219,10.786307,11.355697,12.318912,0.441786,PSF-00336_20220901060157,0,0,0,0.5,0.8,4.809306,83.69,79.49,11.58,10.13,100.93,155.9,157.1,-0.8,17,4.032,-37,-142,82,,,,,,,,0:00:00,0000-00-00,0,0,0,0,0,5:59:47,9/1/22,-0.81,-0.23,-0.53,-1.333,-0.513,-0.528,2.293,0,150,-9999,-9999,0,mpf,7000,500,-9999,-9999,300,300,300,509.27066,25,24.066473,520.038818,543.651733,-23.612915,2.508493,2.503482,1.655201,0.932108,0.467416,-0.013715,0.343475,0.122064,144.450546,0.00222,2.386067,-0.000044,1,2.373562,-0.000053,1,0.600878,0.600715,0.106777,0,PSF-00336_20220901060157,PFA-00364,PSA-00381,PSF-00336,RHS-00170,2.0.0,2021-01-19T12:57:14.097Z
29,6:03:21,9/1/22,Manual gsw+F,LI-COR Default,,29,LCOR-501,,168.071503,554.35968,0.696819,8.707511,2.912878,2.182708,2.130052,1.152259,1.091921,1.249584,0.097325,10.818414,11.416219,12.380484,0.441786,PSF-00336_20220901060321,0,0,0,0.5,0.8,0.461507,84.15,79.75,11.58,10.21,100.93,155.6,157,-0.9,2,4.03,-62,-112,20,,,,,,,,0:00:00,0000-00-00,0,0,0,0,0,5:59:47,9/1/22,-0.81,-0.022,-0.39,-1.263,-0.162,0.736,4.767,0,150,-9999,-9999,0,mpf,7000,500,-9999,-9999,300,300,300,554.35968,25,26.511066,566.414978,592.233093,-25.818115,2.508818,2.504084,1.652563,0.931946,0.467475,-0.012908,0.347916,0.108285,169.041748,0.002205,2.386067,-0.000044,1,2.373562,-0.000053,1,0.600878,0.600715,0.106777,0,PSF-00336_20220901060321,PFA-00364,PSA-00381,PSF-00336,RHS-00170,2.0.0,2021-01-19T12:57:14.097Z
30,6:05:07,9/1/22,Manual gsw+F,LI-COR Default,,30,LCOR-262,,161.189682,507.609833,0.682454,-33.314812,2.915715,3.195375,2.826699,1.17533,1.095454,1.263539,0.088209,10.85331,11.644685,12.51862,0.441786,PSF-00336_20220901060507,0,0,0,0.5,0.8,0.102779,85.89,80.06,11.57,10.37,100.93,156,157.3,-0.8,0,4.027,-33,-173,97,,,,,,,,0:00:00,0000-00-00,0,0,0,0,0,5:59:47,9/1/22,-0.81,-2.155,-1.469,-1.533,-1.204,-0.976,4.214,0,150,-9999,-9999,0,mpf,7000,500,-9999,-9999,300,300,300,507.609833,25,26.171743,519.480957,544.998474,-25.517517,2.509215,2.506336,1.655546,0.932488,0.467651,-0.011077,0.353565,0.10712,161.189682,0.002248,2.386067,-0.000044,1,2.373562,-0.000053,1,0.600878,0.600715,0.106777,0,PSF-00336_20220901060507,PFA-00364,PSA-00381,PSF-00336,RHS-00170,2.0.0,2021-01-19T12:57:14.097Z
31,6:06:49,9/1/22,Manual gsw+F,LI-COR Default,,31,LCOR-081,,182.119843,558.169861,0.67372,4.761439,2.914868,1.808027,1.677661,1.158734,1.111285,1.251277,0.092543,11.009446,11.479523,12.396342,0.441786,PSF-00336_20220901060649,0,0,0,0.5,0.8,0.626306,84.63,81.17,11.58,10.23,100.94,155.9,157.1,-0.8,2,4.025,-21,179,273,,,,,,,,0:00:00,0000-00-00,0,0,0,0,0,5:59:47,9/1/22,-0.81,-0.158,-0.388,-1.146,-0.12,0.2,4.218,0,150,-9999,-9999,0,mpf,7000,500,-9999,-9999,300,300,300,558.169861,25,20.195259,566.768982,587.020569,-20.251587,2.510635,2.504705,1.654653,0.932171,0.467495,-0.012685,0.358877,0.108894,182.119843,0.002274,2.386067,-0.000044,1,2.373562,-0.000053,1,0.600878,0.600715,0.106777,0,PSF-00336_20220901060649,PFA-00364,PSA-00381,PSF-00336,RHS-00170,2.0.0,2021-01-19T12:57:14.097Z
32,6:08:30,9/1/22,Manual gsw+F,LI-COR Default,,32,LCOR-210,,147.517212,508.919128,0.710136,5.708037,2.91576,1.929923,1.785945,1.170253,1.119783,1.262534,0.092281,11.093882,11.593891,12.508136,0.441786,PSF-00336_20220901060830,0,0,0,0.5,0.8,2.878808,85.31,81.63,11.61,10.36,100.94,156,157.1,-0.7,10,4.024,-52,-136,67,,,,,,,,0:00:00,0000-00-00,0,0,0,0,0,5:59:47,9/1/22,-0.81,-0.105,-0.408,-0.782,-0.556,-0.478,2.019,0,150,-9999,-9999,0,mpf,7000,500,-9999,-9999,300,300,300,508.919128,25,24.175934,519.845337,543.456604,-23.611267,2.511221,2.505575,1.655592,0.932053,0.466956,-0.011598,0.364084,0.116008,147.517212,0.002233,2.386067,-0.000044,1,2.373562,-0.000053,1,0.600878,0.600715,0.106777,0,PSF-00336_20220901060830,PFA-00364,PSA-00381,PSF-00336,RHS-00170,2.0.0,2021-01-19T12:57:14.097Z
33,6:09:56,9/1/22,Manual gsw+F,LI-COR Default,,33,LCOR-417,,124.555351,520.542725,0.76072,8.874433,2.914758,2.194114,1.914583,1.174211,1.120063,1.261231,0.08702,11.096023,11.632448,12.494521,0.441786,PSF-00336_20220901060956,0,0,0,0.5,0.8,3.995736,85.4,81.47,11.64,10.34,100.94,155.8,155.5,0.3,13,4.022,-31,-176,111,,,,,,,,0:00:00,0000-00-00,0,0,0,0,0,5:59:47,9/1/22,-0.81,-0.749,-1.703,-4.713,-0.021,0.26,2.345,0,150,-9999,-9999,0,mpf,7000,500,-9999,-9999,300,300,300,520.542725,25,25.72296,532.503601,557.290283,-24.786682,2.510996,2.505682,1.654537,0.927946,0.466301,-0.012133,0.368388,0.118737,124.555351,0.002263,2.386067,-0.000044,1,2.373562,-0.000053,1,0.600878,0.600715,0.106777,0,PSF-00336_20220901060956,PFA-00364,PSA-00381,PSF-00336,RHS-00170,2.0.0,2021-01-19T12:57:14.097Z
34,6:11:33,9/1/22,Manual gsw+F,LI-COR Default,,34,LCOR-225,,155.242325,524.645081,0.7041,3.222349,2.919242,1.531658,1.388366,1.159191,1.12006,1.249593,0.090402,11.096595,11.484273,12.379904,0.441786,PSF-00336_20220901061133,0,0,0,0.5,0.8,0.449189,84.07,81.23,11.69,10.21,100.94,156.4,157.1,-0.4,2,4.019,-37,177,164,,,,,,,,0:00:00,0000-00-00,0,0,0,0,0,6:10:38,9/1/22,-0.82,-0.185,-0.082,-0.246,-0.834,-0.561,3.223,0,150,-9999,-9999,0,mpf,7000,500,-9999,-9999,300,300,300,524.645081,25,26.2885,536.676025,562.200562,-25.524536,2.510685,2.503952,1.659281,0.931969,0.465491,-0.014041,0.37295,0.10823,156.332016,0.002252,2.386067,-0.000044,1,2.373562,-0.000053,1,0.600878,0.600715,0.106777,0,PSF-00336_20220901061133,PFA-00364,PSA-00381,PSF-00336,RHS-00170,2.0.0,2021-01-19T12:57:14.097Z
35,6:13:05,9/1/22,Manual gsw+F,LI-COR Default,,35,LCOR-478,,175.088882,508.669128,0.65579,4.047758,2.915352,1.694737,1.636004,1.158332,1.112079,1.254607,0.096275,11.017475,11.475707,12.429513,0.441786,PSF-00336_20220901061305,0,0,0,0.5,0.8,0.929451,84.39,81.02,11.62,10.27,100.94,155.9,157.4,-0.9,4,4.017,-19,-167,112,,,,,,,,0:00:00,0000-00-00,0,0,0,0,0,6:10:38,9/1/22,-0.82,-0.108,-0.286,-0.571,-0.638,-0.511,4.488,0,150,-9999,-9999,0,mpf,7000,500,-9999,-9999,300,300,300,508.669128,25,20.822826,517.059448,538.416382,-21.356934,2.510432,2.504384,1.655163,0.932779,0.466768,-0.012687,0.376813,0.110004,175.088882,0.002268,2.386067,-0.000044,1,2.373562,-0.000053,1,0.600878,0.600715,0.106777,0,PSF-00336_20220901061305,PFA-00364,PSA-00381,PSF-00336,RHS-00170,2.0.0,2021-01-19T12:57:14.097Z
36,6:14:37,9/1/22,Manual gsw+F,LI-COR Default,,36,LCOR-567,,127.194641,527.520447,0.758882,3.406722,2.916452,1.57129,1.605047,1.153331,1.107995,1.255195,0.101864,10.978269,11.427463,12.436758,0.441786,PSF-00336_20220901061437,0,0,0,0.5,0.8,0.049926,84.41,81.09,11.55,10.27,100.93,156.1,153.1,1.9,0,4.015,-46,-116,57,,,,,,,,0:00:00,0000-00-00,0,0,0,0,0,6:10:38,9/1/22,-0.82,-0.08,-0.145,-0.383,0.128,0.585,2.365,0,150,-9999,-9999,0,mpf,7000,500,-9999,-9999,300,300,300,527.520447,25,30.477146,541.898132,571.059753,-29.161621,2.510546,2.504431,1.656323,0.922054,0.468066,-0.011873,0.380582,0.106927,127.194641,0.002211,2.386067,-0.000044,1,2.373562,-0.000053,1,0.600878,0.600715,0.106777,0,PSF-00336_20220901061437,PFA-00364,PSA-00381,PSF-00336,RHS-00170,2.0.0,2021-01-19T12:57:14.097Z
37,6:16:39,9/1/22,Manual gsw+F,LI-COR Default,,37,LCOR-389,,160.904999,511.048065,0.685147,4.972048,2.915704,1.837915,1.657483,1.140228,1.093378,1.230178,0.08995,10.833379,11.297583,12.18882,0.441786,PSF-00336_20220901061639,0,0,0,0.5,0.8,0.070901,84.08,80.63,11.44,9.97,100.93,156,157,-0.7,0,4.013,-42,-155,99,,,,,,,,0:00:00,0000-00-00,0,0,0,0,0,6:10:38,9/1/22,-0.82,-0.061,-0.212,-0.481,-0.958,-1.803,-2.554,0,150,-9999,-9999,0,mpf,7000,500,-9999,-9999,300,300,300,511.048065,25,23.624987,521.054871,544.798462,-23.743591,2.509986,2.50404,1.655533,0.931767,0.470209,-0.013782,0.385356,0.107013,160.904999,0.002212,2.386067,-0.000044,1,2.373562,-0.000053,1,0.600878,0.600715,0.106777,0,PSF-00336_20220901061639,PFA-00364,PSA-00381,PSF-00336,RHS-00170,2.0.0,2021-01-19T12:57:14.097Z
38,6:18:16,9/1/22,Manual gsw+F,LI-COR Default,,38,LCOR-246,,170.458679,545.47229,0.687503,5.348396,2.915398,1.88687,1.62245,1.147801,1.101933,1.233561,0.08576,10.91812,11.372587,12.222307,0.441786,PSF-00336_20220901061816,0,0,0,0.5,0.8,0.120708,85.02,81.62,11.37,10.01,100.93,155.9,141.3,9.4,0,4.01,-49,-149,92,,,,,,,,0:00:00,0000-00-00,0,0,0,0,0,6:10:38,9/1/22,-0.82,-0.099,-0.091,-0.194,-0.253,-0.036,2.287,0,150,-9999,-9999,0,mpf,7000,500,-9999,-9999,300,300,300,545.47229,25,26.883228,557.119507,583.87738,-26.757874,2.511276,2.505273,1.655211,0.893117,0.471483,-0.012636,0.389473,0.107177,170.458679,0.002241,2.386067,-0.000044,1,2.373562,-0.000053,1,0.600878,0.600715,0.106777,0,PSF-00336_20220901061816,PFA-00364,PSA-00381,PSF-00336,RHS-00170,2.0.0,2021-01-19T12:57:14.097Z
39,6:20:04,9/1/22,Manual gsw+F,LI-COR Default,,39,LCOR-430,,192.883377,525.273804,0.632795,9.055921,2.917266,2.206474,1.862758,1.155164,1.102584,1.239358,0.084194,10.924652,11.445627,12.279837,0.441786,PSF-00336_20220901062004,0,0,0,0.5,0.8,0.084666,85.81,81.9,11.33,10.08,100.93,156.2,157.3,-0.7,0,4.008,-54,-91,5,,,,,,,,0:00:00,0000-00-00,0,0,0,0,0,6:10:38,9/1/22,-0.82,0.048,-0.052,-0.086,-0.134,0.082,2.732,0,150,-9999,-9999,0,mpf,7000,500,-9999,-9999,300,300,300,525.273804,25,20.720665,533.393372,554.875122,-21.48175,2.511646,2.506303,1.657184,0.932477,0.472291,-0.011451,0.394065,0.107082,192.883377,0.002241,2.386067,-0.000044,1,2.373562,-0.000053,1,0.600878,0.600715,0.106777,0,PSF-00336_20220901062004,PFA-00364,PSA-00381,PSF-00336,RHS-00170,2.0.0,2021-01-19T12:57:14.097Z
40,6:21:53,9/1/22,Manual gsw+F,LI-COR Default,,40,LCOR-465,,127.408859,538.074402,0.763213,6.49339,2.916318,2.012474,1.672836,1.160895,1.113642,1.243792,0.082897,11.033773,11.501954,12.323285,0.441786,PSF-00336_20220901062153,0,0,0,0.5,0.8,0.20904,86.17,82.66,11.34,10.14,100.93,156,157,-0.6,1,4.006,-49,-138,84,,,,,,,,0:00:00,0000-00-00,0,0,0,0,0,6:21:12,9/1/22,-0.67,0.087,-0.213,-0.282,0.403,0.792,2.157,0,150,-9999,-9999,0,mpf,7000,500,-9999,-9999,300,300,300,538.074402,25,33.315792,553.782471,585.668945,-31.886475,2.51261,2.506577,1.656181,0.931921,0.472078,-0.011017,0.398815,0.107401,127.13456,0.002314,2.386067,-0.000044,1,2.373562,-0.000053,1,0.600878,0.600715,0.106777,0,PSF-00336_20220901062153,PFA-00364,PSA-00381,PSF-00336,RHS-00170,2.0.0,2021-01-19T12:57:14.097Z
41,6:24:04,9/1/22,Manual gsw+F,LI-COR Default,,41,LCOR-183,,116.338135,508.057953,0.771014,10.457899,2.916949,2.280786,1.679483,1.167234,1.119818,1.24067,0.073436,11.094748,11.564526,12.292104,0.441786,PSF-00336_20220901062404,0,0,0,0.5,0.8,0.396333,86.66,83.14,11.33,10.1,100.93,156.1,157.5,-0.9,1,4.002,-43,-164,101,,,,,,,,0:00:00,0000-00-00,0,0,0,0,0,6:21:12,9/1/22,-0.67,-0.418,-0.522,-1.019,0.266,0.672,2.047,0,150,-9999,-9999,0,mpf,7000,500,-9999,-9999,300,300,300,508.057953,25,30.801876,521.921387,552.061157,-30.139771,2.51322,2.507213,1.656849,0.93305,0.47215,-0.011367,0.404397,0.107947,116.338135,0.00229,2.386067,-0.000044,1,2.373562,-0.000053,1,0.600878,0.600715,0.106777,0,PSF-00336_20220901062404,PFA-00364,PSA-00381,PSF-00336,RHS-00170,2.0.0,2021-01-19T12:57:14.097Z
42,6:25:47,9/1/22,Manual gsw+F,LI-COR Default,,42,LCOR-288,,100.629684,499.1362,0.798392,11.562442,2.916502,2.329029,1.648111,1.170205,1.123661,1.240773,0.070569,11.133098,11.594249,12.293436,0.441786,PSF-00336_20220901062547,0,0,0,0.5,0.8,0.633361,86.91,83.46,11.33,10.1,100.93,156.1,157.3,-0.8,2,4.001,-45,-154,92,,,,,,,,0:00:00,0000-00-00,0,0,0,0,0,6:21:12,9/1/22,-0.67,-0.967,-1.707,-7.732,0.437,0.827,1.603,0,150,-9999,-9999,0,mpf,7000,500,-9999,-9999,300,300,300,499.1362,25,37.986061,519.405151,553.402649,-33.997498,2.513625,2.507541,1.656376,0.932585,0.472257,-0.011294,0.408725,0.108583,100.629684,0.00229,2.386067,-0.000044,1,2.373562,-0.000053,1,0.600878,0.600715,0.106777,0,PSF-00336_20220901062547,PFA-00364,PSA-00381,PSF-00336,RHS-00170,2.0.0,2021-01-19T12:57:14.097Z