Obs#,Time,Date,configName,configAuthor,remark,Observation,ID,time(hour),gsw,gbw,gtw,E_apparent,VPcham,VPref,VPleaf,VPDleaf,H2O_r,H2O_s,H2O_leaf,leaf_area,flashID,Fo,Fm,Fv/Fm,Fs,Fm',PhiPS2,PS2/1,abs,ETR,rh_s,rh_r,Tref,Tleaf,P_atm,flow,flow_s,leak_pct,Qamb,batt,pitch,roll,heading,angle_inc_leaf,direct_pct,slope_leaf,az_leaf,dec_solar,az_solar,zenith_solar,gps_time,gps_date,latitude,longitude,altitude,gps_sats,gps_HDOP,match_time,match_date,rh_adj,gsw1sec,gsw2sec,gsw4sec,flr1sec,flr2sec,flr4sec,auto,flow_set,gsw_limit,gsw_period,dark,flash_type,flash_intensity,modrate,flr_limit,flr_period,P1_dur,P2_dur,P3_dur,P1_Fmax,P2_ramp,P2_slp,P3_Fmax,P3_Pred,P3_DeltaF,v_humA,v_humB,v_flowIn,v_flowOut,v_temp,v_irt,v_pres,v_par,v_F,i_LED,b_rhr,m_rhr,span_rhr,b_rhs,m_rhs,span_rhs,z_flowIn,z_flowOut,z_quantum,z_flr,flashId,lciSerNum,lcpSerNum,lcfSerNum,lcrhSerNum,version,configUpdatedAt
1,10:16:38,9/2/22,Auto gsw+F,LI-COR Default,,1,LCOR-038,10,0.331322,2.91794,0.297537,3.468785,1.893635,1.796967,3.035954,1.142319,17.889521,18.851889,30.224136,0.441786,PSF-00336_20220902101638,0,0,0,114.355087,283.235229,0.596254,0.5,0.8,239.001465,68.87,65.35,22.58,24.23,100.45,156.2,154.5,1.1,1002,4.113,-3,178,115,,,,,,,,0:00:00,0000-00-00,0,0,0,0,0,10:13:21,9/2/22,0.11,0.001,0.001,0.041,0.721,1.882,9.472,1,150,0.005,2,0,mpf,7000,500,5,2,300,300,300,262.485992,25,-14.658439,261.60907,262.294342,-0.685272,2.486637,2.479228,1.657898,0.92547,0.300376,0.018893,0.07791,1.019486,114.355087,0.001176,2.386067,-0.000044,1,2.373562,-0.000053,1,0.600878,0.600715,0.106777,0,PSF-00336_20220902101638,PFA-00364,PSA-00381,PSF-00336,RHS-00170,2.0.0,2021-01-19T12:57:14.097Z
2,10:17:50,9/2/22,Auto gsw+F,LI-COR Default,,2,LCOR-444,10,0.424311,2.915521,0.370404,4.65622,1.929419,1.799446,3.160254,1.230835,17.912374,19.206175,31.458382,0.441786,PSF-00336_20220902101750,0,0,0,151.17717,269.300873,0.438631,0.5,0.8,276.042267,69.11,64.46,22.83,24.9,100.46,155.9,155.6,0.2,1573,4.112,-31,175,99,,,,,,,,0:00:00,0000-00-00,0,0,0,0,0,10:13:21,9/2/22,0.11,0,0.004,-0.001,0.377,1.938,10.212,1,150,0.005,2,0,mpf,7000,500,5,2,300,300,300,251.72496,25,-12.695466,249.825241,251.164276,-1.339035,2.485377,2.479474,1.655341,0.928414,0.297379,0.023885,0.08742,1.539755,151.17717,0.000781,2.386067,-0.000044,1,2.373562,-0.000053,1,0.600878,0.600715,0.106777,0,PSF-00336_20220902101750,PFA-00364,PSA-00381,PSF-00336,RHS-00170,2.0.0,2021-01-19T12:57:14.097Z
3,10:18:30,9/2/22,Auto gsw+F,LI-COR Default,,3,LCOR-050,10,0.461014,2.91955,0.398144,4.694951,1.963582,1.832977,3.118328,1.154746,18.244663,19.544643,31.038486,0.441786,PSF-00336_20220902101830,0,0,0,116.213676,292.933594,0.603276,0.5,0.8,303.443787,69.87,65.22,22.95,24.67,100.47,156.4,151.8,3,1257,4.11,-1,157,114,,,,,,,,0:00:00,0000-00-00,0,0,0,0,0,10:13:21,9/2/22,0.11,0.003,0.002,0.011,-0.239,-0.583,-0.894,1,150,0.005,2,0,mpf,7000,500,5,2,300,300,300,266.549713,25,-18.325329,266.829376,266.754242,0.075134,2.486348,2.480445,1.659608,0.918748,0.296061,0.019926,0.092538,1.252092,116.213676,0.001083,2.386067,-0.000044,1,2.373562,-0.000053,1,0.600878,0.600715,0.106777,0,PSF-00336_20220902101830,PFA-00364,PSA-00381,PSF-00336,RHS-00170,2.0.0,2021-01-19T12:57:14.097Z
4,10:20:06,9/2/22,Auto gsw+F,LI-COR Default,,4,LCOR-597,10,0.41499,2.915309,0.363278,4.163424,1.89119,1.77491,3.014389,1.123198,17.668358,18.825869,30.006756,0.441786,PSF-00336_20220902102006,0,0,0,116.679314,312.950653,0.627164,0.5,0.8,253.042038,65.64,61.6,23.36,24.11,100.46,155.9,150.7,3.3,1009,4.108,-9,172,118,,,,,,,,0:00:00,0000-00-00,0,0,0,0,0,10:13:21,9/2/22,0.11,0.006,0.002,0.013,-0.69,1.043,2.254,1,150,0.005,2,0,mpf,7000,500,5,2,300,300,300,286.094055,25,-18.969315,284.328094,285.851318,-1.523224,2.481439,2.474653,1.655118,0.916102,0.291225,0.008408,0.104388,1.025479,116.679314,0.000995,2.386067,-0.000044,1,2.373562,-0.000053,1,0.600878,0.600715,0.106777,0,PSF-00336_20220902102006,PFA-00364,PSA-00381,PSF-00336,RHS-00170,2.0.0,2021-01-19T12:57:14.097Z
5,10:21:38,9/2/22,Auto gsw+F,LI-COR Default,,5,LCOR-451,10,0.219597,2.917128,0.204223,2.154049,1.845638,1.785535,2.880299,1.034661,17.773947,18.372234,28.671671,0.441786,PSF-00336_20220902102138,0,0,0,87.957146,271.184998,0.675656,0.5,0.8,174.880936,62.79,60.75,23.69,23.35,100.46,156.1,153.2,1.9,647,4.106,-16,-179,344,,,,,,,,0:00:00,0000-00-00,0,0,0,0,0,10:13:21,9/2/22,0.11,0,0.003,0.013,0.627,0.423,1.524,1,150,0.005,2,0,mpf,7000,500,5,2,300,300,300,249.814865,25,-14.616479,252.597565,250.304062,2.293503,2.480208,2.470726,1.657038,0.922361,0.287403,-0.004307,0.115228,0.696136,87.957146,0.001122,2.386067,-0.000044,1,2.373562,-0.000053,1,0.600878,0.600715,0.106777,0,PSF-00336_20220902102138,PFA-00364,PSA-00381,PSF-00336,RHS-00170,2.0.0,2021-01-19T12:57:14.097Z
6,10:22:54,9/2/22,Auto gsw+F,LI-COR Default,,6,LCOR-592,10,0.568244,2.914961,0.475541,5.274831,2.003646,1.856445,3.089754,1.086108,18.478983,19.944216,30.755295,0.441786,PSF-00336_20220902102254,0,0,0,123.336914,294.501678,0.581201,0.5,0.8,254.789398,67.22,62.28,23.92,24.52,100.46,155.9,155.1,0.5,1096,4.105,-4,157,141,,,,,,,,0:00:00,0000-00-00,0,0,0,0,0,10:13:21,9/2/22,0.11,0.003,0.004,-0.015,-1.591,-3.169,-3.989,1,150,0.005,2,0,mpf,7000,500,5,2,300,300,300,273.908966,25,-14.362898,273.201233,273.983002,-0.781769,2.482166,2.476592,1.65475,0.927063,0.284724,0.006592,0.123824,1.104978,123.336914,0.001149,2.386067,-0.000044,1,2.373562,-0.000053,1,0.600878,0.600715,0.106777,0,PSF-00336_20220902102254,PFA-00364,PSA-00381,PSF-00336,RHS-00170,2.0.0,2021-01-19T12:57:14.097Z
7,10:24:31,9/2/22,Auto gsw+F,LI-COR Default,,7,LCOR-097,10,0.190737,2.915339,0.179024,2.41358,1.898081,1.83067,3.21811,1.320029,18.221153,18.892113,32.030716,0.441786,PSF-00336_20220902102431,0,0,0,136.496902,306.153625,0.554156,0.5,0.8,247.128906,62.28,60.07,24.29,25.2,100.47,155.9,154.8,0.7,1115,4.102,6,-177,121,,,,,,,,0:00:00,0000-00-00,0,0,0,0,0,10:23:43,9/2/22,0.03,0.001,0.001,0.006,1.073,-1.395,0.909,1,150,0.005,2,0,mpf,7000,500,5,2,300,300,300,283.469452,25,-16.251072,280.444611,282.937531,-2.49292,2.479127,2.469959,1.655149,0.926323,0.280561,0.010284,0.134398,1.122219,136.496902,0.001168,2.386067,-0.000044,1,2.373562,-0.000053,1,0.600878,0.600715,0.106777,0,PSF-00336_20220902102431,PFA-00364,PSA-00381,PSF-00336,RHS-00170,2.0.0,2021-01-19T12:57:14.097Z
8,10:26:17,9/2/22,Auto gsw+F,LI-COR Default,,8,LCOR-566,10,0.509319,2.917243,0.433615,5.437713,2.012637,1.861167,3.239622,1.226985,18.524885,20.03252,32.245148,0.441786,PSF-00336_20220902102617,0,0,0,118.883011,274.259796,0.566531,0.5,0.8,267.232544,64.54,59.68,24.68,25.31,100.47,156.2,155.5,0.4,1179,4.1,-15,162,134,,,,,,,,0:00:00,0000-00-00,0,0,0,0,0,10:23:43,9/2/22,0.03,-0.004,0.001,0.012,1.841,2.621,4.85,1,150,0.005,2,0,mpf,7000,500,5,2,300,300,300,249.577042,25,-17.103031,247.749207,249.826599,-2.077393,2.478496,2.472875,1.65716,0.92817,0.276283,0.00704,0.145614,1.180837,118.883011,0.000864,2.386067,-0.000044,1,2.373562,-0.000053,1,0.600878,0.600715,0.106777,0,PSF-00336_20220902102617,PFA-00364,PSA-00381,PSF-00336,RHS-00170,2.0.0,2021-01-19T12:57:14.097Z
9,10:26:55,9/2/22,Auto gsw+F,LI-COR Default,,9,LCOR-580,10,0.227938,2.916015,0.211412,3.210335,1.964712,1.875154,3.449286,1.484573,18.663546,19.554922,34.330986,0.441786,PSF-00336_20220902102655,0,0,0,124.000313,259.305359,0.521798,0.5,0.8,275.837769,62.54,59.68,24.8,26.37,100.47,156,155.1,0.6,1322,4.099,-11,166,127,,,,,,,,0:00:00,0000-00-00,0,0,0,0,0,10:23:43,9/2/22,0.03,-0.003,0,0.008,-1.628,-1.248,3.723,1,150,0.005,2,0,mpf,7000,500,5,2,300,300,300,232.987762,25,-19.890598,226.088409,230.889877,-4.801468,2.478468,2.470148,1.655862,0.927084,0.274923,0.018197,0.14947,1.310466,124.000313,0.00121,2.386067,-0.000044,1,2.373562,-0.000053,1,0.600878,0.600715,0.106777,0,PSF-00336_20220902102655,PFA-00364,PSA-00381,PSF-00336,RHS-00170,2.0.0,2021-01-19T12:57:14.097Z
10,10:27:39,9/2/22,Auto gsw+F,LI-COR Default,,10,LCOR-407,10,0.280462,2.916351,0.255857,3.391315,1.947683,1.853085,3.244996,1.297313,18.443838,19.385378,32.297596,0.441786,PSF-00336_20220902102739,0,0,0,124.990227,245.89299,0.491689,0.5,0.8,214.295135,61.39,58.41,24.96,25.34,100.47,156,154.3,1.1,1090,4.097,0,167,98,,,,,,,,0:00:00,0000-00-00,0,0,0,0,0,10:23:43,9/2/22,0.03,0.002,0.004,0.014,-2.051,-3.257,-2.128,1,150,0.005,2,0,mpf,7000,500,5,2,300,300,300,228.237747,25,-13.290195,224.065308,226.906769,-2.841461,2.476719,2.468553,1.656217,0.925087,0.273125,0.003943,0.153898,1.099174,124.990227,0.001235,2.386067,-0.000044,1,2.373562,-0.000053,1,0.600878,0.600715,0.106777,0,PSF-00336_20220902102739,PFA-00364,PSA-00381,PSF-00336,RHS-00170,2.0.0,2021-01-19T12:57:14.097Z
11,10:28:40,9/2/22,Auto gsw+F,LI-COR Default,,11,LCOR-288,10,0.587806,2.91744,0.489235,4.768394,1.99578,1.862971,2.950769,0.954989,18.545372,19.867453,29.374111,0.441786,PSF-00336_20220902102840,0,0,0,87.44323,269.447906,0.675473,0.5,0.8,137.041885,61.93,57.81,25.22,23.75,100.45,156.2,155.2,0.6,507,4.096,-26,173,109,,,,,,,,0:00:00,0000-00-00,0,0,0,0,0,10:23:43,9/2/22,0.03,-0.003,-0.001,0.014,0.088,0.13,0.476,1,150,0.005,2,0,mpf,7000,500,5,2,300,300,300,255.392426,25,-9.497427,260.548706,255.87999,4.668716,2.47585,2.469207,1.657368,0.927389,0.270293,-0.017809,0.159968,0.568742,87.44323,0.001224,2.386067,-0.000044,1,2.373562,-0.000053,1,0.600878,0.600715,0.106777,0,PSF-00336_20220902102840,PFA-00364,PSA-00381,PSF-00336,RHS-00170,2.0.0,2021-01-19T12:57:14.097Z
12,10:30:12,9/2/22,Auto gsw+F,LI-COR Default,,12,LCOR-576,10,0.479016,2.919206,0.411494,4.942546,1.981394,1.843894,3.157228,1.175833,18.353821,19.722481,31.426535,0.441786,PSF-00336_20220902103012,0,0,0,96.684692,334.782318,0.711201,0.5,0.8,442.159821,60.36,56.18,25.53,24.88,100.46,156.4,154.9,0.9,1554,4.094,-39,-172,78,,,,,,,,0:00:00,0000-00-00,0,0,0,0,0,10:23:43,9/2/22,0.03,-0.001,-0.001,0.024,-0.954,-2.184,-17.452,1,150,0.005,2,0,mpf,7000,500,5,2,300,300,300,306.408752,25,-19.637016,308.897858,306.729095,2.168762,2.473578,2.467001,1.659243,0.926659,0.26698,-0.008294,0.168966,1.522407,96.684692,0.001264,2.386067,-0.000044,1,2.373562,-0.000053,1,0.600878,0.600715,0.106777,0,PSF-00336_20220902103012,PFA-00364,PSA-00381,PSF-00336,RHS-00170,2.0.0,2021-01-19T12:57:14.097Z
13,10:31:23,9/2/22,Auto gsw+F,LI-COR Default,,13,LCOR-187,10,0.693208,2.916262,0.560076,7.311519,2.039159,1.835422,3.315579,1.27642,18.271364,20.299534,33.006111,0.441786,PSF-00336_20220902103123,0,0,0,206.279755,354.378296,0.417911,0.5,0.8,223.285843,61.54,55.39,25.69,25.7,100.45,156,155.3,0.5,1336,4.093,2,152,115,,,,,,,,0:00:00,0000-00-00,0,0,0,0,0,10:23:43,9/2/22,0.03,0.004,0.002,0.008,-0.774,2.423,-4.044,1,150,0.005,2,0,mpf,7000,500,5,2,300,300,300,338.433624,25,-11.175805,338.760498,338.412659,0.347839,2.472479,2.468533,1.656122,0.927436,0.265282,-0.000485,0.175635,1.323357,206.279755,0.001206,2.386067,-0.000044,1,2.373562,-0.000053,1,0.600878,0.600715,0.106777,0,PSF-00336_20220902103123,PFA-00364,PSA-00381,PSF-00336,RHS-00170,2.0.0,2021-01-19T12:57:14.097Z
14,10:32:29,9/2/22,Auto gsw+F,LI-COR Default,,14,LCOR-215,10,0.280164,2.916656,0.255611,4.065413,1.985559,1.872252,3.539265,1.553706,18.63846,19.766445,35.233749,0.441786,PSF-00336_20220902103229,0,0,0,141.745804,264.212067,0.463515,0.5,0.8,259.983368,59.38,56,25.85,26.81,100.45,156.1,155.2,0.5,1402,4.091,-36,152,133,,,,,,,,0:00:00,0000-00-00,0,0,0,0,0,10:23:43,9/2/22,0.03,0.004,0.001,0.006,-1.988,-0.661,12.72,1,150,0.005,2,0,mpf,7000,500,5,2,300,300,300,243.772385,25,-15.869789,238.412262,241.540665,-3.128403,2.473249,2.465585,1.656538,0.927396,0.263687,0.010912,0.181777,1.383936,141.745804,0.0012,2.386067,-0.000044,1,2.373562,-0.000053,1,0.600878,0.600715,0.106777,0,PSF-00336_20220902103229,PFA-00364,PSA-00381,PSF-00336,RHS-00170,2.0.0,2021-01-19T12:57:14.097Z
15,10:33:16,9/2/22,Auto gsw+F,LI-COR Default,,15,LCOR-183,10,0.56912,2.917403,0.47622,6.613153,2.057465,1.873382,3.414489,1.357024,18.64864,20.4811,33.989647,0.441786,PSF-00336_20220902103316,0,0,0,146.630646,252.663223,0.41966,0.5,0.8,232.801392,61.06,55.6,25.98,26.2,100.46,156.2,155.2,0.6,1387,4.091,-12,160,126,,,,,,,,0:00:00,0000-00-00,0,0,0,0,0,10:23:43,9/2/22,0.03,0.004,0.002,0.009,-1.088,-3.956,-9.32,1,150,0.005,2,0,mpf,7000,500,5,2,300,300,300,238.368637,25,-10.455197,236.569046,237.727051,-1.158005,2.472684,2.467812,1.657329,0.927293,0.262328,0.002059,0.186046,1.369917,146.630646,0.001194,2.386067,-0.000044,1,2.373562,-0.000053,1,0.600878,0.600715,0.106777,0,PSF-00336_20220902103316,PFA-00364,PSA-00381,PSF-00336,RHS-00170,2.0.0,2021-01-19T12:57:14.097Z
16,10:34:56,9/2/22,Auto gsw+F,LI-COR Default,,16,LCOR-465,10,0.494013,2.916534,0.422456,6.935884,2.052678,1.859473,3.655092,1.602414,18.510508,20.433802,36.385365,0.441786,PSF-00336_20220902103456,0,0,0,179.955841,280.842255,0.359228,0.5,0.8,251.353302,60.05,54.4,26.22,27.36,100.46,156.1,153.4,1.7,1749,4.088,-39,-150,70,,,,,,,,0:00:00,0000-00-00,0,0,0,0,0,10:23:43,9/2/22,0.03,0,0.002,0.01,-1.35,-2.82,-6.82,1,150,0.005,2,0,mpf,7000,500,5,2,300,300,300,266.896606,25,-10.004589,265.885223,266.549805,-0.664581,2.47101,2.466378,1.65641,0.922824,0.259807,0.013047,0.195016,1.700003,179.955841,0.001162,2.386067,-0.000044,1,2.373562,-0.000053,1,0.600878,0.600715,0.106777,0,PSF-00336_20220902103456,PFA-00364,PSA-00381,PSF-00336,RHS-00170,2.0.0,2021-01-19T12:57:14.097Z
17,10:36:14,9/2/22,Auto gsw+F,LI-COR Default,,17,LCOR-430,10,0.363775,2.917315,0.323443,6.156928,1.995099,1.823599,3.851654,1.856555,18.153532,19.860775,38.342377,0.441786,PSF-00336_20220902103614,0,0,0,179.49057,282.951172,0.365648,0.5,0.8,254.370361,58.08,53.09,26.3,28.26,100.45,156.2,154.9,0.8,1739,4.086,-40,171,105,,,,,,,,0:00:00,0000-00-00,0,0,0,0,0,10:35:31,9/2/22,0.13,0.003,-0.002,-0.001,-1.991,-4.233,-10.919,1,150,0.005,2,0,mpf,7000,500,5,2,300,300,300,268.212677,25,-10.652225,267.532104,267.733521,-0.201416,2.469224,2.463559,1.657236,0.926584,0.258946,0.022949,0.201916,1.690817,179.49057,0.001135,2.386067,-0.000044,1,2.373562,-0.000053,1,0.600878,0.600715,0.106777,0,PSF-00336_20220902103614,PFA-00364,PSA-00381,PSF-00336,RHS-00170,2.0.0,2021-01-19T12:57:14.097Z
18,10:37:15,9/2/22,Auto gsw+F,LI-COR Default,,18,LCOR-246,10,0.430215,2.916064,0.374904,5.69476,2.044431,1.885751,3.527792,1.48336,18.774803,20.35465,35.123199,0.441786,PSF-00336_20220902103715,0,0,0,116.697906,248.698135,0.530765,0.5,0.8,272.003967,59.32,54.71,26.36,26.75,100.44,156,155.1,0.6,1281,4.084,-11,165,120,,,,,,,,0:00:00,0000-00-00,0,0,0,0,0,10:35:31,9/2/22,0.13,0.001,0,0.01,-1.335,-2.411,-10.265,1,150,0.005,2,0,mpf,7000,500,5,2,300,300,300,229.404694,25,-13.46898,227.710602,229.456497,-1.745895,2.471388,2.46521,1.655914,0.927083,0.258352,0.004071,0.207106,1.273684,116.697906,0.001134,2.386067,-0.000044,1,2.373562,-0.000053,1,0.600878,0.600715,0.106777,0,PSF-00336_20220902103715,PFA-00364,PSA-00381,PSF-00336,RHS-00170,2.0.0,2021-01-19T12:57:14.097Z
19,10:38:13,9/2/22,Auto gsw+F,LI-COR Default,,19,LCOR-389,10,0.256061,2.916675,0.235395,4.171458,2.024591,1.90839,3.753284,1.728693,19.000488,20.157415,37.368793,0.441786,PSF-00336_20220902103813,0,0,0,129.782074,234.641907,0.446893,0.5,0.8,248.998947,58.3,54.95,26.49,27.81,100.44,156.1,155.2,0.6,1393,4.083,-19,147,135,,,,,,,,0:00:00,0000-00-00,0,0,0,0,0,10:35:31,9/2/22,0.13,-0.002,-0.001,0.008,-1.363,-3.832,-8.651,1,150,0.005,2,0,mpf,7000,500,5,2,300,300,300,219.081039,25,-11.223237,216.949585,218.608521,-1.658936,2.471671,2.463793,1.656559,0.927242,0.25703,0.015281,0.212007,1.375471,129.782074,0.001151,2.386067,-0.000044,1,2.373562,-0.000053,1,0.600878,0.600715,0.106777,0,PSF-00336_20220902103813,PFA-00364,PSA-00381,PSF-00336,RHS-00170,2.0.0,2021-01-19T12:57:14.097Z
20,10:39:27,9/2/22,Auto gsw+F,LI-COR Default,,20,LCOR-413,10,0.203631,2.917132,0.190344,3.341798,1.993451,1.900366,3.706784,1.713333,18.920547,19.847336,36.905735,0.441786,PSF-00336_20220902103927,0,0,0,113.323685,291.069946,0.610665,0.5,0.8,279.952576,56.94,54.28,26.62,27.6,100.44,156.1,154.2,1.3,1146,4.082,-28,143,138,,,,,,,,0:00:00,0000-00-00,0,0,0,0,0,10:35:31,9/2/22,0.13,0.004,-0.001,0.017,0.196,0.739,1.273,1,150,0.005,2,0,mpf,7000,500,5,2,300,300,300,255.12027,25,-25.589785,249.212265,254.512665,-5.3004,2.470739,2.46192,1.657042,0.924747,0.255647,0.011051,0.218035,1.150642,113.323685,0.001108,2.386067,-0.000044,1,2.373562,-0.000053,1,0.600878,0.600715,0.106777,0,PSF-00336_20220902103927,PFA-00364,PSA-00381,PSF-00336,RHS-00170,2.0.0,2021-01-19T12:57:14.097Z
21,10:40:17,9/2/22,Auto gsw+F,LI-COR Default,,21,LCOR-567,10,0.40221,2.916198,0.35346,5.430034,2.033092,1.881796,3.533257,1.500165,18.736597,20.243017,35.179806,0.441786,PSF-00336_20220902104017,0,0,0,121.154312,311.059998,0.610511,0.5,0.8,304.550873,57.82,53.52,26.7,26.78,100.43,156,152.3,2.4,1247,4.08,-7,169,124,,,,,,,,0:00:00,0000-00-00,0,0,0,0,0,10:35:31,9/2/22,0.13,-0.004,-0.003,-0.01,0.516,0.591,-2.699,1,150,0.005,2,0,mpf,7000,500,5,2,300,300,300,281.964172,25,-20.277353,280.002594,282.09201,-2.089417,2.469689,2.463085,1.656055,0.920053,0.254886,0.000292,0.222135,1.242648,121.154312,0.001118,2.386067,-0.000044,1,2.373562,-0.000053,1,0.600878,0.600715,0.106777,0,PSF-00336_20220902104017,PFA-00364,PSA-00381,PSF-00336,RHS-00170,2.0.0,2021-01-19T12:57:14.097Z
22,10:41:10,9/2/22,Auto gsw+F,LI-COR Default,,22,LCOR-478,10,0.497932,2.918021,0.42535,6.457079,2.025244,1.845551,3.508102,1.482858,18.373241,20.162167,34.924648,0.441786,PSF-00336_20220902104110,0,0,0,151.586655,266.727814,0.43168,0.5,0.8,258.325806,57.27,52.19,26.8,26.66,100.45,156.2,154.7,1,1496,4.08,1,155,124,,,,,,,,0:00:00,0000-00-00,0,0,0,0,0,10:35:31,9/2/22,0.13,0.008,0.005,0.018,-2.405,-3.796,-3.366,1,150,0.005,2,0,mpf,7000,500,5,2,300,300,300,250.289444,25,-12.040534,247.896912,249.52684,-1.629929,2.467877,2.462315,1.657984,0.925959,0.253912,-0.002324,0.226437,1.469378,151.586655,0.001109,2.386067,-0.000044,1,2.373562,-0.000053,1,0.600878,0.600715,0.106777,0,PSF-00336_20220902104110,PFA-00364,PSA-00381,PSF-00336,RHS-00170,2.0.0,2021-01-19T12:57:14.097Z
23,10:41:54,9/2/22,Auto gsw+F,LI-COR Default,,23,LCOR-329,10,0.355594,2.916247,0.316947,5.265123,1.969954,1.823163,3.592181,1.622228,18.152668,19.614218,35.766232,0.441786,PSF-00336_20220902104154,0,0,0,241.414551,360.96756,0.331202,0.5,0.8,190.417664,55.52,51.38,26.85,27.06,100.43,156,151.7,2.7,1437,4.079,-18,157,127,,,,,,,,0:00:00,0000-00-00,0,0,0,0,0,10:35:31,9/2/22,0.13,0.001,0,0.003,-2.729,-4.39,-11.691,1,150,0.005,2,0,mpf,7000,500,5,2,300,300,300,349.40744,25,-8.733036,347.891083,348.491638,-0.600555,2.466771,2.459921,1.656107,0.918691,0.25333,0.001812,0.229908,1.415893,241.414551,0.001129,2.386067,-0.000044,1,2.373562,-0.000053,1,0.600878,0.600715,0.106777,0,PSF-00336_20220902104154,PFA-00364,PSA-00381,PSF-00336,RHS-00170,2.0.0,2021-01-19T12:57:14.097Z
24,10:42:38,9/2/22,Auto gsw+F,LI-COR Default,,24,LCOR-225,10,0.398002,2.916481,0.35021,5.467956,1.994614,1.842227,3.519762,1.525148,18.341661,19.85886,35.043606,0.441786,PSF-00336_20220902104238,0,0,0,115.967987,254.021454,0.543472,0.5,0.8,289.992126,56.02,51.74,26.91,26.72,100.44,156.1,155.3,0.5,1334,4.078,-13,161,127,,,,,,,,0:00:00,0000-00-00,0,0,0,0,0,10:35:31,9/2/22,0.13,0.003,0.003,0.015,0.342,2.022,3.152,1,150,0.005,2,0,mpf,7000,500,5,2,300,300,300,228.757385,25,-17.801748,226.064438,228.590073,-2.525635,2.467243,2.460589,1.656354,0.927515,0.252748,-0.003045,0.233371,1.321766,115.967987,0.001129,2.386067,-0.000044,1,2.373562,-0.000053,1,0.600878,0.600715,0.106777,0,PSF-00336_20220902104238,PFA-00364,PSA-00381,PSF-00336,RHS-00170,2.0.0,2021-01-19T12:57:14.097Z
25,10:43:39,9/2/22,Auto gsw+F,LI-COR Default,,25,LCOR-312,10,0.501648,2.916649,0.428029,6.507339,2.056207,1.874987,3.540678,1.484471,18.667456,20.471685,35.251141,0.441786,PSF-00336_20220902104339,0,0,0,138.19278,289.432678,0.522539,0.5,0.8,263.604034,57.42,52.36,27.01,26.82,100.44,156.1,154.7,0.9,1261,4.076,-9,168,126,,,,,,,,0:00:00,0000-00-00,0,0,0,0,0,10:35:31,9/2/22,0.13,-0.004,-0.001,0.018,-1.993,-0.469,-9.389,1,150,0.005,2,0,mpf,7000,500,5,2,300,300,300,270.208954,25,-13.383236,268.457642,270.313538,-1.855896,2.468053,2.46246,1.656531,0.925944,0.251774,-0.003013,0.23824,1.25545,138.19278,0.001106,2.386067,-0.000044,1,2.373562,-0.000053,1,0.600878,0.600715,0.106777,0,PSF-00336_20220902104339,PFA-00364,PSA-00381,PSF-00336,RHS-00170,2.0.0,2021-01-19T12:57:14.097Z
26,10:44:37,9/2/22,Auto gsw+F,LI-COR Default,,26,LCOR-108,10,0.524959,2.918321,0.444925,6.486382,2.035303,1.854881,3.459438,1.424135,18.468653,20.265081,34.444893,0.441786,PSF-00336_20220902104437,0,0,0,120.65506,325.030731,0.628789,0.5,0.8,264.217865,56.59,51.57,27.08,26.42,100.43,156.3,136.1,12.9,1051,4.075,-27,166,124,,,,,,,,0:00:00,0000-00-00,0,0,0,0,0,10:35:31,9/2/22,0.13,-0.002,0.003,0.006,0.187,1.925,5.506,1,150,0.005,2,0,mpf,7000,500,5,2,300,300,300,294.893158,25,-20.957827,292.853241,295.090607,-2.237366,2.466973,2.461314,1.658302,0.880559,0.251034,-0.008621,0.242608,1.063576,120.65506,0.00113,2.386067,-0.000044,1,2.373562,-0.000053,1,0.600878,0.600715,0.106777,0,PSF-00336_20220902104437,PFA-00364,PSA-00381,PSF-00336,RHS-00170,2.0.0,2021-01-19T12:57:14.097Z
27,10:46:30,9/2/22,Auto gsw+F,LI-COR Default,,27,LCOR-479,10,0.476216,2.919199,0.409426,5.933808,1.98789,1.822899,3.404171,1.416281,18.153156,19.796198,33.900089,0.441786,PSF-00336_20220902104630,0,0,0,126.264809,333.228638,0.621087,0.5,0.8,244.695801,55.23,50.65,27.1,26.15,100.42,156.4,155.4,0.6,985,4.073,-39,157,131,,,,,,,,0:00:00,0000-00-00,0,0,0,0,0,10:35:31,9/2/22,0.13,0.002,0.002,0.015,-3.587,-2.492,-1.819,1,150,0.005,2,0,mpf,7000,500,5,2,300,300,300,298.609985,25,-24.562689,294.982544,298.138672,-3.156128,2.465714,2.459462,1.659235,0.927844,0.250901,-0.012032,0.25115,1.00387,126.264809,0.001182,2.386067,-0.000044,1,2.373562,-0.000053,1,0.600878,0.600715,0.106777,0,PSF-00336_20220902104630,PFA-00364,PSA-00381,PSF-00336,RHS-00170,2.0.0,2021-01-19T12:57:14.097Z
28,10:47:21,9/2/22,Auto gsw+F,LI-COR Default,,28,LCOR-431,10,0.569239,2.916406,0.476277,6.902896,2.031048,1.838738,3.447014,1.415966,18.307556,20.222309,34.320503,0.441786,PSF-00336_20220902104721,0,0,0,115.076065,312.111969,0.631299,0.5,0.8,260.100891,56.42,51.07,27.1,26.36,100.44,156,155.1,0.6,1030,4.072,-21,169,122,,,,,,,,0:00:00,0000-00-00,0,0,0,0,0,10:47:12,9/2/22,0.1,0.003,0.004,0.017,-1.891,-0.722,2.418,1,150,0.005,2,0,mpf,7000,500,5,2,300,300,300,281.393768,25,-21.44857,279.502625,281.470795,-1.96817,2.466292,2.461102,1.656274,0.927126,0.25086,-0.009559,0.25495,1.044922,115.076065,0.001147,2.386067,-0.000044,1,2.373562,-0.000053,1,0.600878,0.600715,0.106777,0,PSF-00336_20220902104721,PFA-00364,PSA-00381,PSF-00336,RHS-00170,2.0.0,2021-01-19T12:57:14.097Z
29,10:49:05,9/2/22,Auto gsw+F,LI-COR Default,,29,LCOR-532,10,0.668922,2.917267,0.54415,7.911931,2.085355,1.865241,3.504817,1.419461,18.574446,20.766386,34.901669,0.441786,PSF-00336_20220902104905,0,0,0,131.918198,310.182251,0.574707,0.5,0.8,320.829285,57.95,51.83,27.09,26.64,100.42,156.2,155.3,0.6,1396,4.07,-24,157,131,,,,,,,,0:00:00,0000-00-00,0,0,0,0,0,10:47:12,9/2/22,0.1,0,-0.002,0.016,-1.265,-2.821,-8.018,1,150,0.005,2,0,mpf,7000,500,5,2,300,300,300,277.722015,25,-23.059446,274.865265,277.239777,-2.374512,2.467314,2.463175,1.657185,0.92748,0.250925,-0.006113,0.262833,1.377908,131.918198,0.000902,2.386067,-0.000044,1,2.373562,-0.000053,1,0.600878,0.600715,0.106777,0,PSF-00336_20220902104905,PFA-00364,PSA-00381,PSF-00336,RHS-00170,2.0.0,2021-01-19T12:57:14.097Z
30,10:49:50,9/2/22,Auto gsw+F,LI-COR Default,,30,LCOR-219,10,0.40066,2.916687,0.35227,5.576952,1.976502,1.821093,3.522895,1.546393,18.133318,19.680788,35.078815,0.441786,PSF-00336_20220902104950,0,0,0,111.889961,320.592926,0.650991,0.5,0.8,257.142975,55,50.67,27.07,26.73,100.43,156.1,154.8,0.8,988,4.069,-18,161,119,,,,,,,,0:00:00,0000-00-00,0,0,0,0,0,10:47:12,9/2/22,0.1,0.001,0.001,0.016,-0.028,0.248,-0.268,1,150,0.005,2,0,mpf,7000,500,5,2,300,300,300,284.728302,25,-24.860054,282.617218,285.078125,-2.460907,2.465759,2.459186,1.656572,0.926421,0.251163,-0.004778,0.266134,1.006198,111.889961,0.000908,2.386067,-0.000044,1,2.373562,-0.000053,1,0.600878,0.600715,0.106777,0,PSF-00336_20220902104950,PFA-00364,PSA-00381,PSF-00336,RHS-00170,2.0.0,2021-01-19T12:57:14.097Z
31,10:51:59,9/2/22,Auto gsw+F,LI-COR Default,,31,LCOR-390,10,0.378662,2.918844,0.335179,5.304587,1.956318,1.808713,3.502568,1.54625,18.009378,19.479076,34.875107,0.441786,PSF-00336_20220902105159,0,0,0,141.045563,276.859436,0.490552,0.5,0.8,232.538422,54.41,50.31,27.08,26.63,100.43,156.3,155.3,0.6,1185,4.066,-20,165,124,,,,,,,,0:00:00,0000-00-00,0,0,0,0,0,10:47:12,9/2/22,0.1,0.002,0.003,0.016,-2.874,-0.061,8.711,1,150,0.005,2,0,mpf,7000,500,5,2,300,300,300,259.699341,25,-12.901615,256.134857,258.428345,-2.293488,2.465263,2.45839,1.658858,0.927644,0.251094,-0.006038,0.275248,1.186154,141.045563,0.000904,2.386067,-0.000044,1,2.373562,-0.000053,1,0.600878,0.600715,0.106777,0,PSF-00336_20220902105159,PFA-00364,PSA-00381,PSF-00336,RHS-00170,2.0.0,2021-01-19T12:57:14.097Z
32,10:52:41,9/2/22,Auto gsw+F,LI-COR Default,,32,LCOR-417,10,0.25135,2.916849,0.231409,4.634349,1.923593,1.794384,3.876948,1.953356,17.865591,19.152042,38.60041,0.441786,PSF-00336_20220902105241,0,0,0,189.798477,287.394897,0.33959,0.5,0.8,205.798462,53.5,49.91,27.08,28.37,100.44,156.1,154.9,0.8,1515,4.065,-27,149,135,,,,,,,,0:00:00,0000-00-00,0,0,0,0,0,10:47:12,9/2/22,0.1,0.001,0.002,0.002,-1.353,-4.434,-11.819,1,150,0.005,2,0,mpf,7000,500,5,2,300,300,300,278.571716,25,-6.304862,279.357086,278.387848,0.969238,2.464718,2.457144,1.656743,0.926562,0.251082,0.014919,0.278119,1.486686,189.798477,0.000902,2.386067,-0.000044,1,2.373562,-0.000053,1,0.600878,0.600715,0.106777,0,PSF-00336_20220902105241,PFA-00364,PSA-00381,PSF-00336,RHS-00170,2.0.0,2021-01-19T12:57:14.097Z
33,10:53:18,9/2/22,Auto gsw+F,LI-COR Default,,33,LCOR-210,10,0.358249,2.915805,0.319049,5.598953,1.940607,1.784415,3.653963,1.713356,17.767618,19.322838,36.382912,0.441786,PSF-00336_20220902105318,0,0,0,171.725037,320.188354,0.463675,0.5,0.8,259.49469,53.98,49.63,27.08,27.35,100.43,156,152.6,2.2,1399,4.064,-10,162,126,,,,,,,,0:00:00,0000-00-00,0,0,0,0,0,10:47:12,9/2/22,0.1,0.001,0.002,0.007,-2.525,-4.036,-10.862,1,150,0.005,2,0,mpf,7000,500,5,2,300,300,300,301.522491,25,-13.204453,300.999298,301.324615,-0.325317,2.464345,2.457793,1.65564,0.920754,0.25109,0.00261,0.280662,1.381096,171.725037,0.000888,2.386067,-0.000044,1,2.373562,-0.000053,1,0.600878,0.600715,0.106777,0,PSF-00336_20220902105318,PFA-00364,PSA-00381,PSF-00336,RHS-00170,2.0.0,2021-01-19T12:57:14.097Z
34,10:53:56,9/2/22,Auto gsw+F,LI-COR Default,,34,LCOR-081,10,0.58162,2.919368,0.484995,7.73816,2.071165,1.856177,3.628155,1.556989,18.481327,20.621895,36.124313,0.441786,PSF-00336_20220902105356,0,0,0,131.116028,267.759552,0.510322,0.5,0.8,290.667603,57.57,51.59,27.09,27.23,100.44,156.4,155.5,0.6,1424,4.063,-1,163,122,,,,,,,,0:00:00,0000-00-00,0,0,0,0,0,10:47:12,9/2/22,0.1,-0.002,-0.004,0.019,-1.911,-3.1,-2.413,1,150,0.005,2,0,mpf,7000,500,5,2,300,300,300,244.567749,25,-16.760059,241.366623,243.816315,-2.449692,2.466995,2.462665,1.659414,0.928015,0.250972,0.001009,0.283312,1.403704,131.116028,0.000884,2.386067,-0.000044,1,2.373562,-0.000053,1,0.600878,0.600715,0.106777,0,PSF-00336_20220902105356,PFA-00364,PSA-00381,PSF-00336,RHS-00170,2.0.0,2021-01-19T12:57:14.097Z
35,10:54:52,9/2/22,Auto gsw+F,LI-COR Default,,35,LCOR-172,10,0.436205,2.917315,0.379466,5.656766,1.960061,1.802487,3.417006,1.456945,17.948952,19.518053,34.026134,0.441786,PSF-00336_20220902105452,0,0,0,111.366035,298.790161,0.627277,0.5,0.8,232.451462,54.23,49.87,27.17,26.21,100.42,156.2,152.9,2.1,926,4.062,-27,177,115,,,,,,,,0:00:00,0000-00-00,0,0,0,0,0,10:47:12,9/2/22,0.1,0.004,0.003,0.018,-0.294,0.121,-0.353,1,150,0.005,2,0,mpf,7000,500,5,2,300,300,300,270.329468,25,-20.001881,267.831787,270.215698,-2.383911,2.46464,2.458107,1.657236,0.921682,0.25018,-0.012149,0.286997,0.950571,111.366035,0.000889,2.386067,-0.000044,1,2.373562,-0.000053,1,0.600878,0.600715,0.106777,0,PSF-00336_20220902105452,PFA-00364,PSA-00381,PSF-00336,RHS-00170,2.0.0,2021-01-19T12:57:14.097Z
36,10:55:39,9/2/22,Auto gsw+F,LI-COR Default,,36,LCOR-262,10,0.483361,2.914278,0.414596,6.53521,1.962104,1.779613,3.502127,1.540024,17.719624,19.53669,34.87072,0.441786,PSF-00336_20220902105539,0,0,0,151.214005,264.346466,0.42797,0.5,0.8,230.363083,54.18,49.14,27.2,26.63,100.43,155.8,155.3,0.3,1346,4.061,-8,164,122,,,,,,,,0:00:00,0000-00-00,0,0,0,0,0,10:47:12,9/2/22,0.1,0.001,0.002,0.016,-1.685,-3.416,-6.886,1,150,0.005,2,0,mpf,7000,500,5,2,300,300,300,248.719452,25,-11.436683,246.447083,248.008148,-1.561066,2.463646,2.458035,1.654032,0.927619,0.24986,-0.007563,0.289958,1.332415,151.214005,0.000884,2.386067,-0.000044,1,2.373562,-0.000053,1,0.600878,0.600715,0.106777,0,PSF-00336_20220902105539,PFA-00364,PSA-00381,PSF-00336,RHS-00170,2.0.0,2021-01-19T12:57:14.097Z
37,10:56:15,9/2/22,Auto gsw+F,LI-COR Default,,37,LCOR-118,10,0.27833,2.917467,0.254089,4.043424,1.8862,1.773487,3.441995,1.555795,17.65885,18.781145,34.272408,0.441786,PSF-00336_20220902105615,0,0,0,191.744324,353.329193,0.457321,0.5,0.8,216.529938,51.96,48.85,27.24,26.34,100.43,156.2,141.5,9.4,1184,4.06,-17,173,123,,,,,,,,0:00:00,0000-00-00,0,0,0,0,0,10:47:12,9/2/22,0.1,0.002,0.003,0.016,-3.368,-0.102,9.084,1,150,0.005,2,0,mpf,7000,500,5,2,300,300,300,331.331848,25,-16.973505,325.947418,329.081024,-3.133606,2.463242,2.454987,1.657397,0.893603,0.249444,-0.011576,0.292202,1.184879,191.744324,0.000893,2.386067,-0.000044,1,2.373562,-0.000053,1,0.600878,0.600715,0.106777,0,PSF-00336_20220902105615,PFA-00364,PSA-00381,PSF-00336,RHS-00170,2.0.0,2021-01-19T12:57:14.097Z
38,10:56:55,9/2/22,Auto gsw+F,LI-COR Default,,38,LCOR-501,10,0.367416,2.916421,0.326307,5.326767,1.921128,1.772573,3.5162,1.595072,17.649929,19.12912,35.011623,0.441786,PSF-00336_20220902105655,0,0,0,131.524445,329.386932,0.600699,0.5,0.8,274.974548,52.79,48.71,27.28,26.7,100.43,156,155,0.7,1144,4.059,-22,172,126,,,,,,,,0:00:00,0000-00-00,0,0,0,0,0,10:47:12,9/2/22,0.1,0.002,-0.001,0.025,0.25,4.222,1.74,1,150,0.005,2,0,mpf,7000,500,5,2,300,300,300,297.446594,25,-22.955462,293.466919,296.593018,-3.126099,2.463039,2.45612,1.656291,0.926834,0.249042,-0.007747,0.294688,1.149091,131.524445,0.000917,2.386067,-0.000044,1,2.373562,-0.000053,1,0.600878,0.600715,0.106777,0,PSF-00336_20220902105655,PFA-00364,PSA-00381,PSF-00336,RHS-00170,2.0.0,2021-01-19T12:57:14.097Z
39,10:57:48,9/2/22,Auto gsw+F,LI-COR Default,,39,LCOR-440,10,0.389659,2.916494,0.343734,6.126368,2.002932,1.832221,3.741781,1.738849,18.242943,19.942667,37.255936,0.441786,PSF-00336_20220902105748,0,0,0,134.271378,279.167847,0.51903,0.5,0.8,314.294373,54.67,50.01,27.4,27.76,100.43,156.1,155.3,0.5,1514,4.058,-18,158,129,,,,,,,,0:00:00,0000-00-00,0,0,0,0,0,10:57:40,9/2/22,-0.13,0.004,0.004,0.019,-1.344,2.787,25.335,1,150,0.005,2,0,mpf,7000,500,5,2,300,300,300,250.096313,25,-21.660191,243.752365,248.22435,-4.471985,2.464769,2.458953,1.656367,0.927478,0.247893,0.003603,0.298283,1.485596,134.271378,0.000882,2.386067,-0.000044,1,2.373562,-0.000053,1,0.600878,0.600715,0.106777,0,PSF-00336_20220902105748,PFA-00364,PSA-00381,PSF-00336,RHS-00170,2.0.0,2021-01-19T12:57:14.097Z
40,10:58:26,9/2/22,Auto gsw+F,LI-COR Default,,40,LCOR-457,10,0.213204,2.917491,0.198684,3.815629,1.916157,1.809826,3.790125,1.873968,18.020283,19.07901,37.737938,0.441786,PSF-00336_20220902105826,0,0,0,114.364029,223.456085,0.488204,0.5,0.8,280.203674,52.15,49.25,27.45,27.98,100.43,156.2,154.5,1.1,1435,4.056,-24,155,132,,,,,,,,0:00:00,0000-00-00,0,0,0,0,0,10:57:40,9/2/22,-0.13,-0.001,0.001,0.02,-2.063,-4.046,-0.624,1,150,0.005,2,0,mpf,7000,500,5,2,300,300,300,203.263885,25,-14.313642,200.685379,203.007782,-2.322403,2.463733,2.455504,1.657422,0.925602,0.247406,0.005667,0.3006,1.413658,114.364029,0.00118,2.386067,-0.000044,1,2.373562,-0.000053,1,0.600878,0.600715,0.106777,0,PSF-00336_20220902105826,PFA-00364,PSA-00381,PSF-00336,RHS-00170,2.0.0,2021-01-19T12:57:14.097Z
41,10:59:32,9/2/22,Auto gsw+F,LI-COR Default,,41,LCOR-208,10,0.424146,2.917252,0.370306,6.374421,1.995624,1.818094,3.675674,1.68005,18.102379,19.870003,36.597904,0.441786,PSF-00336_20220902105932,0,0,0,126.372459,301.018158,0.580183,0.5,0.8,286.173706,54.13,49.31,27.51,27.45,100.43,156.2,153.2,1.9,1233,4.055,-19,174,121,,,,,,,,0:00:00,0000-00-00,0,0,0,0,0,10:57:40,9/2/22,-0.13,-0.001,0,0.011,-1.883,-3.022,-10.251,1,150,0.005,2,0,mpf,7000,500,5,2,300,300,300,278.783447,25,-15.338911,278.406494,279.105164,-0.698669,2.463803,2.458194,1.657169,0.922229,0.246853,-0.001368,0.304711,1.229901,126.372459,0.001205,2.386067,-0.000044,1,2.373562,-0.000053,1,0.600878,0.600715,0.106777,0,PSF-00336_20220902105932,PFA-00364,PSA-00381,PSF-00336,RHS-00170,2.0.0,2021-01-19T12:57:14.097Z
42,11:00:08,9/2/22,Auto gsw+F,LI-COR Default,,42,LCOR-375,10,0.459129,2.916785,0.396687,6.929502,1.982564,1.789484,3.687418,1.704854,17.818005,19.740509,36.715839,0.441786,PSF-00336_20220902110008,0,0,0,144.259216,228.094925,0.367547,0.5,0.8,227.146088,53.78,48.54,27.5,27.51,100.43,156.1,154.8,0.8,1545,4.054,-8,158,127,,,,,,,,0:00:00,0000-00-00,0,0,0,0,0,10:57:40,9/2/22,-0.13,-0.001,0,0.011,-1.202,-3.595,-11.6,1,150,0.005,2,0,mpf,7000,500,5,2,300,300,300,215.80159,25,-8.886279,214.592819,215.400085,-0.807266,2.462752,2.457716,1.656676,0.926322,0.246861,-0.0007,0.306803,1.513974,144.259216,0.000911,2.386067,-0.000044,1,2.373562,-0.000053,1,0.600878,0.600715,0.106777,0,PSF-00336_20220902110008,PFA-00364,PSA-00381,PSF-00336,RHS-00170,2.0.0,2021-01-19T12:57:14.097Z
43,11:00:48,9/2/22,Auto gsw+F,LI-COR Default,,43,LCOR-119,10,0.512337,2.916966,0.435794,7.503945,2.021646,1.812663,3.701788,1.680142,18.047848,20.128605,36.857002,0.441786,PSF-00336_20220902110048,0,0,0,162.925964,273.669739,0.404662,0.5,0.8,270.134155,54.87,49.2,27.49,27.57,100.44,156.1,155.9,0.2,1669,4.054,-1,153,127,,,,,,,,0:00:00,0000-00-00,0,0,0,0,0,10:57:40,9/2/22,-0.13,-0.001,-0.002,-0.002,-1.27,-3.814,-10.138,1,150,0.005,2,0,mpf,7000,500,5,2,300,300,300,259.126434,25,-10.776278,258.718384,258.274872,0.443512,2.463649,2.459204,1.656867,0.928937,0.24696,0.000226,0.309238,1.6268,162.925964,0.000936,2.386067,-0.000044,1,2.373562,-0.000053,1,0.600878,0.600715,0.106777,0,PSF-00336_20220902110048,PFA-00364,PSA-00381,PSF-00336,RHS-00170,2.0.0,2021-01-19T12:57:14.097Z
44,11:01:29,9/2/22,Auto gsw+F,LI-COR Default,,44,LCOR-500,10,0.21835,2.917904,0.203148,4.131321,1.937431,1.822357,3.920463,1.983032,18.143734,19.289436,39.032883,0.441786,PSF-00336_20220902110129,0,0,0,185.16362,291.989868,0.365856,0.5,0.8,230.488449,52.66,49.53,27.47,28.56,100.44,156.2,155.2,0.6,1575,4.053,-11,154,130,,,,,,,,0:00:00,0000-00-00,0,0,0,0,0,10:57:40,9/2/22,-0.13,-0.001,0.001,0.009,-0.556,-1.729,-6.254,1,150,0.005,2,0,mpf,7000,500,5,2,300,300,300,279.996155,25,-8.543306,280.248657,279.785004,0.463654,2.464103,2.456195,1.65786,0.927369,0.247186,0.012474,0.311721,1.541282,185.16362,0.000927,2.386067,-0.000044,1,2.373562,-0.000053,1,0.600878,0.600715,0.106777,0,PSF-00336_20220902110129,PFA-00364,PSA-00381,PSF-00336,RHS-00170,2.0.0,2021-01-19T12:57:14.097Z
45,11:03:24,9/2/22,Auto gsw+F,LI-COR Default,,45,LCOR-456,10,0.747028,2.915994,0.594681,9.538649,2.118378,1.852787,3.682841,1.564463,18.447443,21.091822,36.668541,0.441786,PSF-00336_20220902110324,0,0,0,119.719147,267.668823,0.552734,0.5,0.8,331.929382,57.57,50.35,27.47,27.49,100.44,156,154.7,0.8,1501,4.05,-7,161,125,,,,,,,,0:00:00,0000-00-00,0,0,0,0,0,10:57:40,9/2/22,-0.13,0.002,0.003,0.02,-0.561,-1.533,1.885,1,150,0.005,2,0,mpf,7000,500,5,2,300,300,300,239.988678,25,-19.210125,237.657669,240.225464,-2.567795,2.465223,2.462872,1.655839,0.926036,0.247186,-0.000554,0.318406,1.474167,119.719147,0.000932,2.386067,-0.000044,1,2.373562,-0.000053,1,0.600878,0.600715,0.106777,0,PSF-00336_20220902110324,PFA-00364,PSA-00381,PSF-00336,RHS-00170,2.0.0,2021-01-19T12:57:14.097Z
46,11:04:33,9/2/22,Auto gsw+F,LI-COR Default,,46,LCOR-602,10,0.319208,2.917183,0.287724,5.090273,2.0224,1.880672,3.74811,1.72571,18.72624,20.137461,37.320713,0.441786,PSF-00336_20220902110433,0,0,0,204.564575,375.809631,0.45567,0.5,0.8,236.187836,54.89,51.04,27.5,27.79,100.43,156.1,155,0.7,1296,4.049,-36,160,128,,,,,,,,0:00:00,0000-00-00,0,0,0,0,0,10:57:40,9/2/22,-0.13,0.001,0.001,0.011,-0.751,-1.885,0.599,1,150,0.005,2,0,mpf,7000,500,5,2,300,300,300,353.01947,25,-16.35141,351.195923,352.450195,-1.254272,2.466145,2.459229,1.657096,0.926921,0.246953,0.002791,0.322484,1.287018,204.564575,0.000912,2.386067,-0.000044,1,2.373562,-0.000053,1,0.600878,0.600715,0.106777,0,PSF-00336_20220902110433,PFA-00364,PSA-00381,PSF-00336,RHS-00170,2.0.0,2021-01-19T12:57:14.097Z
47,11:05:30,9/2/22,Auto gsw+F,LI-COR Default,,47,LCOR-615,10,0.291624,2.914312,0.265097,5.213067,2.000377,1.854843,3.917467,1.91709,18.465796,19.914652,39.000141,0.441786,PSF-00336_20220902110530,0,0,0,151.133545,301.975983,0.499518,0.5,0.8,293.590057,54.25,50.31,27.51,28.55,100.45,155.8,155.2,0.4,1469,4.047,-4,152,124,,,,,,,,0:00:00,0000-00-00,0,0,0,0,0,10:57:40,9/2/22,-0.13,0.001,0.004,0.01,-0.835,-1.371,5.219,1,150,0.005,2,0,mpf,7000,500,5,2,300,300,300,275.992859,25,-19.08972,271.464233,274.70462,-3.240387,2.465147,2.458361,1.654068,0.927367,0.246836,0.011878,0.325651,1.445077,151.133545,0.000926,2.386067,-0.000044,1,2.373562,-0.000053,1,0.600878,0.600715,0.106777,0,PSF-00336_20220902110530,PFA-00364,PSA-00381,PSF-00336,RHS-00170,2.0.0,2021-01-19T12:57:14.097Z
48,11:06:36,9/2/22,Auto gsw+F,LI-COR Default,,48,LCOR-460,10,0.623828,2.919526,0.513999,9.127892,2.092207,1.838663,3.82348,1.731273,18.304768,20.828918,38.06456,0.441786,PSF-00336_20220902110636,0,0,0,126.578812,267.481018,0.526775,0.5,0.8,323.007202,56.58,49.73,27.56,28.13,100.45,156.4,155,0.9,1533,4.046,-11,159,128,,,,,,,,0:00:00,0000-00-00,0,0,0,0,0,10:57:40,9/2/22,-0.13,-0.001,-0.002,0.011,0.07,-0.584,-3.093,1,150,0.005,2,0,mpf,7000,500,5,2,300,300,300,238.15155,25,-21.07276,232.930542,237.376709,-4.446167,2.46435,2.46151,1.659583,0.926849,0.246364,0.006202,0.329363,1.502986,126.578812,0.00092,2.386067,-0.000044,1,2.373562,-0.000053,1,0.600878,0.600715,0.106777,0,PSF-00336_20220902110636,PFA-00364,PSA-00381,PSF-00336,RHS-00170,2.0.0,2021-01-19T12:57:14.097Z
49,11:07:37,9/2/22,Auto gsw+F,LI-COR Default,,49,LCOR-531,10,0.659115,2.916991,0.537633,8.103662,2.046672,1.821038,3.518657,1.471985,18.13047,20.376909,35.032173,0.441786,PSF-00336_20220902110737,0,0,0,120.239136,286.214661,0.579899,0.5,0.8,296.409119,55.24,49.15,27.59,26.71,100.44,156.1,153.6,1.6,1278,4.041,-26,169,124,,,,,,,,0:00:00,0000-00-00,0,0,0,0,0,10:57:40,9/2/22,-0.13,0.003,-0.001,0.02,0.431,1.233,2.383,1,150,0.005,2,0,mpf,7000,500,5,2,300,300,300,257.374054,25,-20.282827,254.239075,257.238831,-2.999756,2.463553,2.459672,1.656892,0.923196,0.246012,-0.011343,0.332524,1.270642,120.239136,0.001228,2.386067,-0.000044,1,2.373562,-0.000053,1,0.600878,0.600715,0.106777,0,PSF-00336_20220902110737,PFA-00364,PSA-00381,PSF-00336,RHS-00170,2.0.0,2021-01-19T12:57:14.097Z
50,11:11:19,9/2/22,Auto gsw+F,LI-COR Default,,50,LCOR-477,10,0.522463,2.916646,0.443092,7.934401,2.015251,1.79418,3.762258,1.747007,17.861561,20.062382,37.454319,0.441786,PSF-00336_20220902111119,0,0,0,124.209526,193.647049,0.358578,0.5,0.8,237.308563,54.63,48.64,27.51,27.85,100.45,156.1,155.1,0.6,1655,4.041,13,161,120,,,,,,,,0:00:00,0000-00-00,0,0,0,0,0,11:11:07,9/2/22,-0.15,-0.002,0.001,0.009,-0.867,-2.157,-6.165,1,150,0.005,2,0,mpf,7000,500,5,2,300,300,300,183.17485,25,-7.518036,182.058334,182.90686,-0.848526,2.462885,2.458901,1.656528,0.927154,0.246766,0.00334,0.344551,1.613707,124.209526,0.001162,2.386067,-0.000044,1,2.373562,-0.000053,1,0.600878,0.600715,0.106777,0,PSF-00336_20220902111119,PFA-00364,PSA-00381,PSF-00336,RHS-00170,2.0.0,2021-01-19T12:57:14.097Z
51,11:12:05,9/2/22,Auto gsw+F,LI-COR Default,,51,LCOR-586,10,0.322168,2.917737,0.290133,5.533759,1.939798,1.785636,3.800865,1.861066,17.777203,19.311996,37.84016,0.441786,PSF-00336_20220902111205,0,0,0,111.897469,192.169128,0.417714,0.5,0.8,276.301025,52.49,48.32,27.55,28.03,100.45,156.2,153,2,1654,4.039,-17,162,126,,,,,,,,0:00:00,0000-00-00,0,0,0,0,0,11:11:07,9/2/22,-0.15,0,0.002,0.012,-1.003,-1.751,-2.858,1,150,0.005,2,0,mpf,7000,500,5,2,300,300,300,177.277557,25,-10.791785,174.868591,176.752106,-1.883514,2.462439,2.455972,1.657683,0.921922,0.246452,0.005074,0.347012,1.612923,111.897469,0.000908,2.386067,-0.000044,1,2.373562,-0.000053,1,0.600878,0.600715,0.106777,0,PSF-00336_20220902111205,PFA-00364,PSA-00381,PSF-00336,RHS-00170,2.0.0,2021-01-19T12:57:14.097Z
52,11:12:45,9/2/22,Auto gsw+F,LI-COR Default,,52,LCOR-578,10,0.360889,2.916609,0.321151,6.03089,1.969134,1.801024,3.8012,1.832066,17.930536,19.604197,37.843784,0.441786,PSF-00336_20220902111245,0,0,0,115.149376,228.691055,0.496485,0.5,0.8,304.794403,53.24,48.7,27.56,28.03,100.44,156.1,154.7,0.8,1535,4.039,-15,162,126,,,,,,,,0:00:00,0000-00-00,0,0,0,0,0,11:11:07,9/2/22,-0.15,0.003,0.004,0.021,-3.954,-1.021,3.457,1,150,0.005,2,0,mpf,7000,500,5,2,300,300,300,202.538254,25,-18.903639,197.064041,201.685532,-4.62149,2.462951,2.456995,1.656489,0.926181,0.246323,0.004932,0.349124,1.504638,115.149376,0.000916,2.386067,-0.000044,1,2.373562,-0.000053,1,0.600878,0.600715,0.106777,0,PSF-00336_20220902111245,PFA-00364,PSA-00381,PSF-00336,RHS-00170,2.0.0,2021-01-19T12:57:14.097Z
53,11:13:16,9/2/22,Auto gsw+F,LI-COR Default,,53,LCOR-056,10,0.445225,2.917038,0.386269,7.25138,2.005748,1.803753,3.83661,1.830862,17.957037,19.967978,38.194893,0.441786,PSF-00336_20220902111316,0,0,0,188.182358,283.086884,0.335249,0.5,0.8,223.087158,54.22,48.76,27.56,28.19,100.45,156.1,154.4,1.1,1664,4.038,5,157,122,,,,,,,,0:00:00,0000-00-00,0,0,0,0,0,11:11:07,9/2/22,-0.15,0.001,0.002,0.004,-2.103,-3.703,-11.305,1,150,0.005,2,0,mpf,7000,500,5,2,300,300,300,270.733246,25,-8.975671,269.605286,270.264343,-0.659058,2.463039,2.458329,1.656943,0.925215,0.246295,0.006831,0.350781,1.621979,188.182358,0.000914,2.386067,-0.000044,1,2.373562,-0.000053,1,0.600878,0.600715,0.106777,0,PSF-00336_20220902111316,PFA-00364,PSA-00381,PSF-00336,RHS-00170,2.0.0,2021-01-19T12:57:14.097Z
54,11:13:58,9/2/22,Auto gsw+F,LI-COR Default,,54,LCOR-029,10,0.569856,2.915178,0.476676,8.026537,2.011935,1.788056,3.655461,1.643526,17.802492,20.031509,36.395012,0.441786,PSF-00336_20220902111358,0,0,0,119.598267,287.495636,0.584,0.5,0.8,347.95575,54.3,48.26,27.59,27.36,100.44,155.9,155.2,0.5,1490,4.037,-14,158,127,,,,,,,,0:00:00,0000-00-00,0,0,0,0,0,11:11:07,9/2/22,-0.15,0.001,0.002,0.006,-0.177,2.66,10.908,1,150,0.005,2,0,mpf,7000,500,5,2,300,300,300,253.377563,25,-24.062824,249.671097,253.119751,-3.448654,2.462349,2.458431,1.654979,0.927224,0.246027,-0.003529,0.352897,1.463448,119.598267,0.000897,2.386067,-0.000044,1,2.373562,-0.000053,1,0.600878,0.600715,0.106777,0,PSF-00336_20220902111358,PFA-00364,PSA-00381,PSF-00336,RHS-00170,2.0.0,2021-01-19T12:57:14.097Z
55,11:14:31,9/2/22,Auto gsw+F,LI-COR Default,,55,LCOR-591,10,0.239553,2.916801,0.221372,4.667598,1.910035,1.779866,3.965974,2.055939,17.719675,19.015585,39.483742,0.441786,PSF-00336_20220902111431,0,0,0,162.034744,271.511566,0.403212,0.5,0.8,272.722626,51.47,47.96,27.62,28.76,100.45,156.1,153.7,1.5,1691,4.037,-6,156,126,,,,,,,,0:00:00,0000-00-00,0,0,0,0,0,11:11:07,9/2/22,-0.15,0.001,-0.001,0.002,-1.697,-3.263,-10.039,1,150,0.005,2,0,mpf,7000,500,5,2,300,300,300,256.147736,25,-10.743441,255.961426,256.163605,-0.202179,2.461936,2.454558,1.656692,0.923565,0.245759,0.01313,0.354586,1.646882,162.034744,0.001208,2.386067,-0.000044,1,2.373562,-0.000053,1,0.600878,0.600715,0.106777,0,PSF-00336_20220902111431,PFA-00364,PSA-00381,PSF-00336,RHS-00170,2.0.0,2021-01-19T12:57:14.097Z
56,11:15:00,9/2/22,Auto gsw+F,LI-COR Default,,56,LCOR-114,10,0.203136,2.918062,0.189916,3.930413,1.903499,1.793982,3.922155,2.018656,17.858875,18.949104,39.044582,0.441786,PSF-00336_20220902111500,0,0,0,206.589462,323.843811,0.362071,0.5,0.8,220.690506,51.19,48.24,27.65,28.57,100.45,156.3,154.9,0.9,1524,4.035,5,169,119,,,,,,,,0:00:00,0000-00-00,0,0,0,0,0,11:11:07,9/2/22,-0.15,-0.003,-0.001,0.005,-3.247,-4.532,-7.719,1,150,0.005,2,0,mpf,7000,500,5,2,300,300,300,309.424286,25,-10.942291,307.207703,308.211792,-1.004089,2.462309,2.454162,1.658028,0.926487,0.245412,0.010354,0.356004,1.494662,206.589462,0.000921,2.386067,-0.000044,1,2.373562,-0.000053,1,0.600878,0.600715,0.106777,0,PSF-00336_20220902111500,PFA-00364,PSA-00381,PSF-00336,RHS-00170,2.0.0,2021-01-19T12:57:14.097Z
57,11:15:43,9/2/22,Auto gsw+F,LI-COR Default,,57,LCOR-270,10,0.129285,2.917449,0.123799,3.449353,1.894286,1.798133,4.602242,2.707955,17.902866,18.860207,45.821602,0.441786,PSF-00336_20220902111543,0,0,0,98.045113,176.539932,0.444629,0.5,0.8,313.006165,50.67,48.1,27.74,31.35,100.44,156.2,152.4,2.4,1760,4.035,-15,150,132,,,,,,,,0:00:00,0000-00-00,0,0,0,0,0,11:11:07,9/2/22,-0.15,0.002,0.003,-9999,-0.396,-1.126,-9999,1,150,0.005,2,0,mpf,7000,500,5,2,300,300,300,155.664322,25,-15.390904,151.037689,154.552658,-3.514969,2.462092,2.453431,1.657377,0.920419,0.244536,0.043835,0.358156,1.70972,98.045113,0.000906,2.386067,-0.000044,1,2.373562,-0.000053,1,0.600878,0.600715,0.106777,0,PSF-00336_20220902111543,PFA-00364,PSA-00381,PSF-00336,RHS-00170,2.0.0,2021-01-19T12:57:14.097Z
58,11:16:37,9/2/22,Auto gsw+F,LI-COR Default,,58,LCOR-447,10,0.560546,2.916125,0.470169,8.512676,2.039398,1.802187,3.805094,1.765696,17.942122,20.303728,37.882549,0.441786,PSF-00336_20220902111637,0,0,0,119.507072,201.0672,0.405636,0.5,0.8,246.292282,54.35,48.03,27.81,28.05,100.44,156,154.6,0.9,1518,4.034,-2,162,122,,,,,,,,0:00:00,0000-00-00,0,0,0,0,0,11:11:07,9/2/22,-0.15,0.002,0.005,0.017,-1.009,-1.468,-6.891,1,150,0.005,2,0,mpf,7000,500,5,2,300,300,300,186.996109,25,-9.776549,185.630325,187.100525,-1.4702,2.461984,2.45844,1.655978,0.925898,0.243929,0.002148,0.360642,1.489316,119.507072,0.000898,2.386067,-0.000044,1,2.373562,-0.000053,1,0.600878,0.600715,0.106777,0,PSF-00336_20220902111637,PFA-00364,PSA-00381,PSF-00336,RHS-00170,2.0.0,2021-01-19T12:57:14.097Z
59,11:17:13,9/2/22,Auto gsw+F,LI-COR Default,,59,LCOR-189,10,0.210297,2.91683,0.196154,3.773471,1.887386,1.782134,3.765264,1.877878,17.742741,18.790621,37.486576,0.441786,PSF-00336_20220902111713,0,0,0,176.207184,265.403931,0.336079,0.5,0.8,216.152512,50.26,47.46,27.82,27.87,100.44,156.1,146.3,6.3,1608,4.034,-11,166,122,,,,,,,,0:00:00,0000-00-00,0,0,0,0,0,11:11:07,9/2/22,-0.15,0.003,0.003,0.011,-0.928,-2.702,-6.018,1,150,0.005,2,0,mpf,7000,500,5,2,300,300,300,254.579193,25,-7.88655,253.787399,254.137299,-0.349899,2.461202,2.45285,1.656722,0.905174,0.2438,-0.000203,0.362291,1.571251,176.207184,0.000916,2.386067,-0.000044,1,2.373562,-0.000053,1,0.600878,0.600715,0.106777,0,PSF-00336_20220902111713,PFA-00364,PSA-00381,PSF-00336,RHS-00170,2.0.0,2021-01-19T12:57:14.097Z
60,11:17:43,9/2/22,Auto gsw+F,LI-COR Default,,60,LCOR-555,10,0.509848,2.91625,0.433976,8.209499,2.067197,1.838481,3.911079,1.843883,18.300312,20.576952,38.93103,0.441786,PSF-00336_20220902111743,0,0,0,108.688477,185.690826,0.41468,0.5,0.8,277.020721,54.99,48.9,27.84,28.52,100.46,156,154.9,0.8,1670,4.032,13,160,113,,,,,,,,0:00:00,0000-00-00,0,0,0,0,0,11:11:07,9/2/22,-0.15,0.001,0.002,0.011,-0.383,-0.98,-3.686,1,150,0.005,2,0,mpf,7000,500,5,2,300,300,300,169.789551,25,-11.516041,166.787979,169.239136,-2.451157,2.46316,2.459289,1.65611,0.926437,0.243603,0.007483,0.36375,1.627891,108.688477,0.00091,2.386067,-0.000044,1,2.373562,-0.000053,1,0.600878,0.600715,0.106777,0,PSF-00336_20220902111743,PFA-00364,PSA-00381,PSF-00336,RHS-00170,2.0.0,2021-01-19T12:57:14.097Z
61,11:19:14,9/2/22,Auto gsw+F,LI-COR Default,,61,LCOR-464,10,0.35196,2.916974,0.314065,6.536068,2.005327,1.823294,4.032432,2.027104,18.156044,19.968706,40.154263,0.441786,PSF-00336_20220902111914,0,0,0,225.994705,364.270386,0.379596,0.5,0.8,239.208694,53.04,48.23,27.94,29.05,100.42,156.1,155,0.7,1575,3.976,-30,-172,79,,,,,,,,0:00:00,0000-00-00,0,0,0,0,0,11:11:07,9/2/22,-0.15,-0.003,-0.002,0.004,1.342,0.356,-15.487,1,150,0.005,2,0,mpf,7000,500,5,2,300,300,300,348.906036,25,-10.900332,350.103027,348.698303,1.404724,2.46222,2.456621,1.656875,0.926723,0.242681,0.012769,0.368092,1.541665,225.994705,0.000927,2.386067,-0.000044,1,2.373562,-0.000053,1,0.600878,0.600715,0.106777,0,PSF-00336_20220902111914,PFA-00364,PSA-00381,PSF-00336,RHS-00170,2.0.0,2021-01-19T12:57:14.097Z
62,12:05:24,9/2/22,Auto gsw+F,LI-COR Default,,62,LCOR-038,12,0.281881,2.916145,0.257036,6.231725,1.953115,1.779349,4.311944,2.358829,17.7181,19.4484,42.936745,0.441786,PSF-00336_20220902120524,0,0,0,122.176048,201.942307,0.394995,0.5,0.8,277.083435,48.73,44.39,28.94,30.21,100.43,156,154.7,0.8,1754,3.973,-28,-174,91,,,,,,,,0:00:00,0000-00-00,0,0,0,0,0,12:05:11,9/2/22,-0.19,0.001,0.002,0.003,-1.737,-3.78,-11.248,1,150,0.005,2,0,mpf,7000,500,5,2,300,300,300,187.424545,25,-10.449724,185.397156,187.013947,-1.616791,2.456731,2.450514,1.655999,0.926153,0.233205,0.014783,0.470738,1.70406,122.176048,0.000907,2.386067,-0.000044,1,2.373562,-0.000053,1,0.600878,0.600715,0.106777,0,PSF-00336_20220902120524,PFA-00364,PSA-00381,PSF-00336,RHS-00170,2.0.0,2021-01-19T12:57:14.097Z
63,12:06:37,9/2/22,Auto gsw+F,LI-COR Default,,63,LCOR-444,12,0.463095,2.918866,0.399683,8.583097,2.068774,1.830206,4.158776,2.090002,18.222332,20.597628,41.406609,0.441786,PSF-00336_20220902120637,0,0,0,112.766144,245.874237,0.541367,0.5,0.8,322.054993,51.44,45.51,29,29.58,100.44,156.4,137.4,12.1,1487,3.973,-9,173,93,,,,,,,,0:00:00,0000-00-00,0,0,0,0,0,12:05:11,9/2/22,-0.19,0.001,0.003,0.016,0.673,1.161,3.6,1,150,0.005,2,0,mpf,7000,500,5,2,300,300,300,217.442398,25,-19.907017,214.466217,217.435303,-2.969086,2.458249,2.454214,1.658881,0.883622,0.232674,0.006292,0.472313,1.461348,112.766144,0.000882,2.386067,-0.000044,1,2.373562,-0.000053,1,0.600878,0.600715,0.106777,0,PSF-00336_20220902120637,PFA-00364,PSA-00381,PSF-00336,RHS-00170,2.0.0,2021-01-19T12:57:14.097Z
64,12:07:14,9/2/22,Auto gsw+F,LI-COR Default,,64,LCOR-050,12,0.333528,2.917758,0.299314,7.12878,2.056829,1.858473,4.372548,2.315719,18.502581,20.477373,43.532196,0.441786,PSF-00336_20220902120714,0,0,0,169.049973,327.244995,0.483415,0.5,0.8,326.172791,51.15,46.22,29,30.45,100.44,156.2,152.7,2.2,1687,3.972,-3,-170,92,,,,,,,,0:00:00,0000-00-00,0,0,0,0,0,12:05:11,9/2/22,-0.19,0.001,-0.001,0.003,1.196,1.61,11.876,1,150,0.005,2,0,mpf,7000,500,5,2,300,300,300,295.651672,25,-22.918974,291.341553,294.503204,-3.161652,2.459215,2.453815,1.657705,0.921125,0.232687,0.017116,0.473015,1.64313,169.049973,0.00086,2.386067,-0.000044,1,2.373562,-0.000053,1,0.600878,0.600715,0.106777,0,PSF-00336_20220902120714,PFA-00364,PSA-00381,PSF-00336,RHS-00170,2.0.0,2021-01-19T12:57:14.097Z
65,12:08:07,9/2/22,Auto gsw+F,LI-COR Default,,65,LCOR-597,12,0.631727,2.915493,0.519222,9.313608,2.090753,1.831243,3.839218,1.748465,18.232258,20.815994,38.224091,0.441786,PSF-00336_20220902120807,0,0,0,91.382858,305.421478,0.700798,0.5,0.8,369.9599,51.86,45.42,29.04,28.2,100.44,155.9,154.2,1.1,1320,3.971,-13,-173,75,,,,,,,,0:00:00,0000-00-00,0,0,0,0,0,12:05:11,9/2/22,-0.19,0.002,0.002,0.013,-0.142,0.525,1.674,1,150,0.005,2,0,mpf,7000,500,5,2,300,300,300,265.837311,25,-27.576471,265.107025,266.026031,-0.919006,2.45812,2.454773,1.655311,0.924717,0.232283,-0.011101,0.474162,1.308834,91.382858,0.000896,2.386067,-0.000044,1,2.373562,-0.000053,1,0.600878,0.600715,0.106777,0,PSF-00336_20220902120807,PFA-00364,PSA-00381,PSF-00336,RHS-00170,2.0.0,2021-01-19T12:57:14.097Z
66,12:08:42,9/2/22,Auto gsw+F,LI-COR Default,,66,LCOR-451,12,0.326275,2.917281,0.293455,6.35843,2.070335,1.89338,4.178899,2.108565,18.850996,20.612806,41.606239,0.441786,PSF-00336_20220902120842,0,0,0,104.910133,269.651031,0.610941,0.5,0.8,314.234161,51.22,46.85,29.09,29.66,100.44,156.2,153.9,1.4,1286,3.971,-30,-176,114,,,,,,,,0:00:00,0000-00-00,0,0,0,0,0,12:05:11,9/2/22,-0.19,0,0.001,0.013,0.356,0.488,2.491,1,150,0.005,2,0,mpf,7000,500,5,2,300,300,300,230.316284,25,-27.530865,225.437881,230.320755,-4.882874,2.460052,2.453893,1.6572,0.924121,0.231879,0.006258,0.475012,1.27794,104.910133,0.000897,2.386067,-0.000044,1,2.373562,-0.000053,1,0.600878,0.600715,0.106777,0,PSF-00336_20220902120842,PFA-00364,PSA-00381,PSF-00336,RHS-00170,2.0.0,2021-01-19T12:57:14.097Z
67,12:09:17,9/2/22,Auto gsw+F,LI-COR Default,,67,LCOR-592,12,0.437304,2.916658,0.380286,8.477742,2.098328,1.862334,4.266567,2.168239,18.541155,20.890676,42.477383,0.441786,PSF-00336_20220902120917,0,0,0,124.9702,233.443817,0.464667,0.5,0.8,329.335846,51.8,45.97,29.12,30.02,100.44,156.1,148.6,4.8,1772,3.969,-13,159,126,,,,,,,,0:00:00,0000-00-00,0,0,0,0,0,12:05:11,9/2/22,-0.19,0.003,0.003,0.018,-0.519,-0.51,-0.519,1,150,0.005,2,0,mpf,7000,500,5,2,300,300,300,207.830429,25,-19.093369,201.422806,206.167252,-4.744446,2.458851,2.454665,1.656541,0.91097,0.231519,0.010232,0.47582,1.720617,124.9702,0.000874,2.386067,-0.000044,1,2.373562,-0.000053,1,0.600878,0.600715,0.106777,0,PSF-00336_20220902120917,PFA-00364,PSA-00381,PSF-00336,RHS-00170,2.0.0,2021-01-19T12:57:14.097Z
68,12:10:04,9/2/22,Auto gsw+F,LI-COR Default,,68,LCOR-097,12,0.266572,2.917182,0.244253,5.174599,1.953956,1.809753,4.018719,2.064764,18.016855,19.452457,40.008057,0.441786,PSF-00336_20220902121004,0,0,0,166.24295,320.535065,0.481358,0.5,0.8,282.283783,48.04,44.5,29.19,28.99,100.45,156.1,154.2,1.3,1466,3.968,-21,161,116,,,,,,,,0:00:00,0000-00-00,0,0,0,0,0,12:05:11,9/2/22,-0.19,0,-0.002,0.004,-1.8,-0.771,7.725,1,150,0.005,2,0,mpf,7000,500,5,2,300,300,300,297.922974,25,-16.077763,296.348328,297.566559,-1.218231,2.456813,2.449505,1.657096,0.924778,0.230888,-0.00339,0.476948,1.442083,166.24295,0.000887,2.386067,-0.000044,1,2.373562,-0.000053,1,0.600878,0.600715,0.106777,0,PSF-00336_20220902121004,PFA-00364,PSA-00381,PSF-00336,RHS-00170,2.0.0,2021-01-19T12:57:14.097Z
69,12:11:30,9/2/22,Auto gsw+F,LI-COR Default,,69,LCOR-566,12,0.467666,2.918814,0.403083,8.843794,2.114462,1.868732,4.248463,2.134001,18.60453,21.05094,42.29641,0.441786,PSF-00336_20220902121130,0,0,0,130.19371,228.676559,0.430664,0.5,0.8,319.388977,51.57,45.58,29.33,29.95,100.44,156.3,153.3,2,1854,3.968,-17,150,135,,,,,,,,0:00:00,0000-00-00,0,0,0,0,0,12:05:11,9/2/22,-0.19,0.001,-0.002,0.026,-2.088,-3.363,3.723,1,150,0.005,2,0,mpf,7000,500,5,2,300,300,300,207.654114,25,-15.265938,204.516296,206.867813,-2.351517,2.45826,2.454298,1.658825,0.922549,0.229614,0.006736,0.478735,1.795444,130.19371,0.000887,2.386067,-0.000044,1,2.373562,-0.000053,1,0.600878,0.600715,0.106777,0,PSF-00336_20220902121130,PFA-00364,PSA-00381,PSF-00336,RHS-00170,2.0.0,2021-01-19T12:57:14.097Z
70,12:12:01,9/2/22,Auto gsw+F,LI-COR Default,,70,LCOR-580,12,0.252002,2.916337,0.231958,5.917019,2.035062,1.870208,4.513668,2.478606,18.620108,20.261417,44.938831,0.441786,PSF-00336_20220902121201,0,0,0,123.72422,212.491043,0.417744,0.5,0.8,314.551208,49.49,45.48,29.38,31.01,100.44,156,154.7,0.9,1882,3.967,-21,154,130,,,,,,,,0:00:00,0000-00-00,0,0,0,0,0,12:05:11,9/2/22,-0.19,0.001,0,-9999,-1.512,-3.56,-9999,1,150,0.005,2,0,mpf,7000,500,5,2,300,300,300,193.685181,25,-13.84479,190.263748,192.71254,-2.448792,2.458116,2.451442,1.656202,0.926062,0.229158,0.019274,0.479438,1.821304,123.72422,0.000889,2.386067,-0.000044,1,2.373562,-0.000053,1,0.600878,0.600715,0.106777,0,PSF-00336_20220902121201,PFA-00364,PSA-00381,PSF-00336,RHS-00170,2.0.0,2021-01-19T12:57:14.097Z
71,12:12:47,9/2/22,Auto gsw+F,LI-COR Default,,71,LCOR-407,12,0.332397,2.91626,0.298387,7.749593,2.07553,1.85967,4.597767,2.522237,18.513065,20.661961,45.770901,0.441786,PSF-00336_20220902121247,0,0,0,118.246078,186.583038,0.366255,0.5,0.8,274.162323,50.16,44.94,29.49,31.33,100.45,156,152.3,2.4,1871,3.966,-15,153,130,,,,,,,,0:00:00,0000-00-00,0,0,0,0,0,12:05:11,9/2/22,-0.19,-0.001,0,0.01,-1.254,-3.107,-9.552,1,150,0.005,2,0,mpf,7000,500,5,2,300,300,300,173.657654,25,-9.461853,171.637054,173.065948,-1.428894,2.457349,2.452325,1.65612,0.919991,0.228167,0.021981,0.480988,1.811239,118.246078,0.001175,2.386067,-0.000044,1,2.373562,-0.000053,1,0.600878,0.600715,0.106777,0,PSF-00336_20220902121247,PFA-00364,PSA-00381,PSF-00336,RHS-00170,2.0.0,2021-01-19T12:57:14.097Z
72,12:13:27,9/2/22,Auto gsw+F,LI-COR Default,,72,LCOR-288,12,0.578647,2.915262,0.482814,10.118219,2.148038,1.866217,4.186592,2.038553,18.580141,21.385962,41.681892,0.441786,PSF-00336_20220902121327,0,0,0,106.133942,221.172668,0.520131,0.5,0.8,322.513977,51.65,44.87,29.58,29.7,100.44,155.9,154,1.2,1550,3.965,-23,172,121,,,,,,,,0:00:00,0000-00-00,0,0,0,0,0,12:05:11,9/2/22,-0.19,0.002,-0.002,0.012,-0.868,-2.295,-4.454,1,150,0.005,2,0,mpf,7000,500,5,2,300,300,300,194.167618,25,-19.226543,189.342499,193.705841,-4.363342,2.457238,2.45434,1.655068,0.924419,0.227391,0.000545,0.481937,1.518661,106.133942,0.001176,2.386067,-0.000044,1,2.373562,-0.000053,1,0.600878,0.600715,0.106777,0,PSF-00336_20220902121327,PFA-00364,PSA-00381,PSF-00336,RHS-00170,2.0.0,2021-01-19T12:57:14.097Z
73,12:14:43,9/2/22,Auto gsw+F,LI-COR Default,,73,LCOR-576,12,0.431013,2.917619,0.375536,7.693527,2.117846,1.9039,4.111677,1.993831,18.956064,21.08621,40.937668,0.441786,PSF-00336_20220902121443,0,0,0,198.327545,325.199005,0.390135,0.5,0.8,240.962082,50.62,45.5,29.69,29.38,100.44,156.2,155,0.8,1544,3.963,-12,176,90,,,,,,,,0:00:00,0000-00-00,0,0,0,0,0,12:05:11,9/2/22,-0.19,-0.002,-0.001,0.004,-0.991,-1.214,-10.798,1,150,0.005,2,0,mpf,7000,500,5,2,300,300,300,312.934387,25,-8.714792,314.029449,312.749146,1.280304,2.458074,2.452903,1.657557,0.92677,0.226447,-0.004607,0.483697,1.513139,198.327545,0.001163,2.386067,-0.000044,1,2.373562,-0.000053,1,0.600878,0.600715,0.106777,0,PSF-00336_20220902121443,PFA-00364,PSA-00381,PSF-00336,RHS-00170,2.0.0,2021-01-19T12:57:14.097Z
74,12:15:47,9/2/22,Auto gsw+F,LI-COR Default,,74,LCOR-187,12,0.827761,2.916288,0.644754,11.330227,2.240798,1.925803,3.951265,1.710468,19.175339,22.311754,39.342983,0.441786,PSF-00336_20220902121547,0,0,0,141.695374,297.556427,0.523803,0.5,0.8,325.388733,53.37,45.86,29.75,28.69,100.43,156,152.9,2,1553,3.962,-21,153,121,,,,,,,,0:00:00,0000-00-00,0,0,0,0,0,12:15:34,9/2/22,-0.26,0.003,0.004,0.015,-0.925,-2.201,-4.554,1,150,0.005,2,0,mpf,7000,500,5,2,300,300,300,270.153168,25,-19.295868,267.586823,269.99057,-2.403748,2.458552,2.456712,1.65615,0.921632,0.2259,-0.013771,0.48477,1.521259,141.695374,0.000911,2.386067,-0.000044,1,2.373562,-0.000053,1,0.600878,0.600715,0.106777,0,PSF-00336_20220902121547,PFA-00364,PSA-00381,PSF-00336,RHS-00170,2.0.0,2021-01-19T12:57:14.097Z
75,12:17:05,9/2/22,Auto gsw+F,LI-COR Default,,75,LCOR-215,12,0.544349,2.916521,0.45873,9.892902,2.106837,1.831471,4.204718,2.097881,18.235613,20.977383,41.865589,0.441786,PSF-00336_20220902121705,0,0,0,118.68882,234.489594,0.493842,0.5,0.8,324.043152,50.08,43.53,29.78,29.77,100.43,156.1,150.7,3.4,1640,3.961,-21,161,123,,,,,,,,0:00:00,0000-00-00,0,0,0,0,0,12:15:34,9/2/22,-0.26,0.001,0.002,0.012,-0.903,-2.692,-6.392,1,150,0.005,2,0,mpf,7000,500,5,2,300,300,300,208.795303,25,-18.239586,204.49054,208.432724,-3.942184,2.455351,2.452229,1.656396,0.916104,0.225598,-0.00101,0.486272,1.600871,118.68882,0.000868,2.386067,-0.000044,1,2.373562,-0.000053,1,0.600878,0.600715,0.106777,0,PSF-00336_20220902121705,PFA-00364,PSA-00381,PSF-00336,RHS-00170,2.0.0,2021-01-19T12:57:14.097Z
76,12:17:57,9/2/22,Auto gsw+F,LI-COR Default,,76,LCOR-183,12,0.67884,2.917642,0.550708,11.239708,2.126395,1.813864,4.112632,1.986237,18.05945,21.171118,40.94677,0.441786,PSF-00336_20220902121757,0,0,0,163.929459,247.377945,0.337332,0.5,0.8,252.670319,50.5,43.08,29.8,29.39,100.44,156.2,154.8,0.9,1873,3.96,-8,162,124,,,,,,,,0:00:00,0000-00-00,0,0,0,0,0,12:15:34,9/2/22,-0.26,0.002,0.002,0.012,-1.427,-3.375,-7.438,1,150,0.005,2,0,mpf,7000,500,5,2,300,300,300,234.367844,25,-9.537562,232.937698,233.752686,-0.814987,2.454721,2.452803,1.657583,0.926416,0.225468,-0.005915,0.487592,1.812309,163.929459,0.000886,2.386067,-0.000044,1,2.373562,-0.000053,1,0.600878,0.600715,0.106777,0,PSF-00336_20220902121757,PFA-00364,PSA-00381,PSF-00336,RHS-00170,2.0.0,2021-01-19T12:57:14.097Z
