Obs#,Time,Date,configName,configAuthor,remark,Observation,ID,Timepoint,gsw,gbw,gtw,E_apparent,VPcham,VPref,VPleaf,VPDleaf,H2O_r,H2O_s,H2O_leaf,leaf_area,flashID,Fo,Fm,Fv/Fm,Fs,Fm',PhiPS2,PS2/1,abs,ETR,rh_s,rh_r,Tref,Tleaf,P_atm,flow,flow_s,leak_pct,Qamb,batt,pitch,roll,heading,angle_inc_leaf,direct_pct,slope_leaf,az_leaf,dec_solar,az_solar,zenith_solar,gps_time,gps_date,latitude,longitude,altitude,gps_sats,gps_HDOP,match_time,match_date,rh_adj,gsw1sec,gsw2sec,gsw4sec,flr1sec,flr2sec,flr4sec,auto,flow_set,gsw_limit,gsw_period,dark,flash_type,flash_intensity,modrate,flr_limit,flr_period,P1_dur,P2_dur,P3_dur,P1_Fmax,P2_ramp,P2_slp,P3_Fmax,P3_Pred,P3_DeltaF,v_humA,v_humB,v_flowIn,v_flowOut,v_temp,v_irt,v_pres,v_par,v_F,i_LED,b_rhr,m_rhr,span_rhr,b_rhs,m_rhs,span_rhs,z_flowIn,z_flowOut,z_quantum,z_flr,flashId,lciSerNum,lcpSerNum,lcfSerNum,lcrhSerNum,version,configUpdatedAt
1,8:21:05,6/27/23,Auto gsw+F,LI-COR Default,,TEST,LCOR-286,8,0.319645,2.918372,0.28809,2.581044,1.158428,1.085619,2.048514,0.890087,10.753704,11.474919,20.291763,0.441786,PSF-00281_20230627082105,0,0,0,81.514481,206.134232,0.604556,0.5,0.8,93.999695,54.45,51.03,18.43,17.82,100.95,156.3,157.9,-1,389,4.1,-41,-161,85,,,,,,,,0:00:00,0000-00-00,0,0,0,0,0,8:18:43,6/27/23,-0.71,-0.003,-0.001,-9999,-0.998,-0.754,-9999,1,150,0.005,2,0,mpf,7000,500,5,2,300,300,300,196.306229,25,-6.790422,196.061249,196.406937,-0.345688,2.491979,2.522453,1.657171,0.935521,0.354962,-0.005215,0.066903,0.467978,81.514481,0.001079,2.413877,-0.000026,1,2.436657,-0.000021,1,0.600512,0.600643,0.106516,0,PSF-00281_20230627082105,PFA-00299,PSA-00311,PSF-00281,RHS-00465,2.0.0,2021-01-19T12:57:14.097Z
2,8:22:08,6/27/23,Auto gsw+F,LI-COR Default,,TEST,LCOR-092,8,0.278856,2.918247,0.254534,2.193543,1.196577,1.134716,2.052597,0.85602,11.239787,11.852551,20.331753,0.441786,PSF-00281_20230627082208,0,0,0,88.441727,226.30983,0.609201,0.5,0.8,90.720009,56.47,53.55,18.36,17.86,100.96,156.3,158.1,-1.1,372,4.099,-44,-179,83,,,,,,,,0:00:00,0000-00-00,0,0,0,0,0,8:18:43,6/27/23,-0.71,0.004,0,-9999,-0.459,1.61,-9999,1,150,0.005,2,0,mpf,7000,500,5,2,300,300,300,216.487885,25,-6.803124,215.946075,216.564331,-0.618256,2.495194,2.525096,1.657038,0.935902,0.355861,-0.00421,0.074667,0.452706,88.441727,0.001091,2.413877,-0.000026,1,2.436657,-0.000021,1,0.600512,0.600643,0.106516,0,PSF-00281_20230627082208,PFA-00299,PSA-00311,PSF-00281,RHS-00465,2.0.0,2021-01-19T12:57:14.097Z
3,8:22:23,6/27/23,Auto gsw+F,LI-COR Default,,TEST,LCOR-344,8,0.290863,2.919135,0.264508,2.270501,1.195101,1.131114,2.047758,0.852657,11.204283,11.838109,20.284122,0.441786,PSF-00281_20230627082223,0,0,0,83.553673,221.427216,0.622658,0.5,0.8,77.144264,56.44,53.42,18.35,17.82,100.95,156.4,157.8,-0.9,310,4.098,-43,-166,138,,,,,,,,0:00:00,0000-00-00,0,0,0,0,0,8:18:43,6/27/23,-0.71,0.001,0.002,-9999,0.249,0.189,-9999,1,150,0.005,2,0,mpf,7000,500,5,2,300,300,300,212.064743,25,-6.451082,211.983566,212.18602,-0.202454,2.49503,2.525061,1.657982,0.93527,0.356026,-0.004482,0.076389,0.394538,83.553673,0.001073,2.413877,-0.000026,1,2.436657,-0.000021,1,0.600512,0.600643,0.106516,0,PSF-00281_20230627082223,PFA-00299,PSA-00311,PSF-00281,RHS-00465,2.0.0,2021-01-19T12:57:14.097Z
1,8:33:14,6/27/23,Auto gsw+F,LI-COR Default,,1,LCOR-268,8,0.378734,2.917539,0.335218,2.460423,1.224692,1.155278,1.954074,0.729382,11.442535,12.130042,19.354261,0.441786,PSF-00281_20230627083314,0,0,0,93.983887,307.828949,0.694688,0.5,0.8,42.651299,57.7,54.43,18.39,17.08,100.96,156.2,158,-1.2,153,4.076,-61,172,212,,,,,,,,0:00:00,0000-00-00,0,0,0,0,0,8:23:46,6/27/23,-1.01,-0.003,-0.001,-0.018,0.751,1.449,1.197,1,150,0.005,2,0,mpf,7000,500,5,2,300,300,300,295.507538,25,-8.534301,295.338745,295.603546,-0.264801,2.496308,2.527097,1.656286,0.935774,0.355499,-0.012661,0.348059,0.249246,93.983887,0.001083,2.413877,-0.000026,1,2.436657,-0.000021,1,0.600512,0.600643,0.106516,0,PSF-00281_20230627083314,PFA-00299,PSA-00311,PSF-00281,RHS-00465,2.0.0,2021-01-19T12:57:14.097Z
2,8:39:49,6/27/23,Auto gsw+F,LI-COR Default,,2,LCOR-092,8,0.103575,2.919616,0.100027,0.785468,1.170993,1.148857,1.95159,0.780597,11.378457,11.597695,19.328846,0.441786,PSF-00281_20230627083949,0,0,0,97.423912,227.008591,0.570836,0.5,0.8,81.553726,57.62,56.53,17.7,17.06,100.97,156.4,156.9,-0.3,357,4.071,-63,169,69,,,,,,,,0:00:00,0000-00-00,0,0,0,0,0,8:39:37,6/27/23,-0.97,0.001,-0.001,-0.017,0.669,1.231,3.127,1,150,0.005,2,0,mpf,7000,500,5,2,300,300,300,217.991348,25,-6.563591,216.2565,217.606232,-1.349731,2.499067,2.527033,1.658495,0.93285,0.365488,-0.005543,0.372805,0.438643,97.423912,0.001073,2.413877,-0.000026,1,2.436657,-0.000021,1,0.600512,0.600643,0.106516,0,PSF-00281_20230627083949,PFA-00299,PSA-00311,PSF-00281,RHS-00465,2.0.0,2021-01-19T12:57:14.097Z
3,8:44:46,6/27/23,Auto gsw+F,LI-COR Default,,3,LCOR-344,8,0.17861,2.919034,0.168312,1.030609,1.178181,1.149125,1.787344,0.609164,11.381195,11.668969,17.702263,0.441786,PSF-00281_20230627084446,0,0,0,98.559738,371.940125,0.735012,0.5,0.8,67.712624,59.8,58.32,17.21,15.68,100.97,156.4,157.8,-0.9,230,4.064,-21,174,110,,,,,,,,0:00:00,0000-00-00,0,0,0,0,0,8:39:37,6/27/23,-0.97,0.004,0.005,-0.013,-0.555,-1.213,-0.197,1,150,0.005,2,0,mpf,7000,500,5,2,300,300,300,363.271606,25,-6.115372,362.655029,363.17984,-0.524811,2.501399,2.529929,1.657874,0.935265,0.372782,-0.014703,0.391066,0.320681,98.559738,0.001066,2.413877,-0.000026,1,2.436657,-0.000021,1,0.600512,0.600643,0.106516,0,PSF-00281_20230627084446,PFA-00299,PSA-00311,PSF-00281,RHS-00465,2.0.0,2021-01-19T12:57:14.097Z
4,8:48:18,6/27/23,Auto gsw+F,LI-COR Default,,4,LCOR-563,8,0.087237,2.918145,0.084705,0.612782,1.173132,1.155843,1.89249,0.719358,11.447443,11.618676,18.743187,0.441786,PSF-00281_20230627084818,0,0,0,84.622978,225.545135,0.624807,0.5,0.8,74.120796,60.14,59.25,17.05,16.57,100.97,156.3,157.6,-0.9,297,4.059,-23,139,129,,,,,,,,0:00:00,0000-00-00,0,0,0,0,0,8:39:37,6/27/23,-0.97,-0.001,-0.001,-9999,0.013,-0.046,-9999,1,150,0.005,2,0,mpf,7000,500,5,2,300,300,300,219.696167,25,-4.028524,219.5009,219.774261,-0.273361,2.502591,2.5304,1.65693,0.9348,0.375176,-0.003721,0.404466,0.382298,84.622978,0.00108,2.413877,-0.000026,1,2.436657,-0.000021,1,0.600512,0.600643,0.106516,0,PSF-00281_20230627084818,PFA-00299,PSA-00311,PSF-00281,RHS-00465,2.0.0,2021-01-19T12:57:14.097Z
5,8:52:42,6/27/23,Auto gsw+F,LI-COR Default,,5,LCOR-062,8,0.247975,2.918425,0.228555,1.335869,1.192287,1.154612,1.773762,0.581475,11.435427,11.808564,17.567564,0.441786,PSF-00281_20230627085242,0,0,0,86.277367,312.054535,0.723518,0.5,0.8,44.121304,61.63,59.68,16.92,15.56,100.97,156.3,158.2,-1.2,152,4.056,-27,132,114,,,,,,,,0:00:00,0000-00-00,0,0,0,0,0,8:52:31,6/27/23,-0.99,0.003,0,-9999,0.105,-0.141,-9999,1,150,0.005,2,0,mpf,7000,500,5,2,300,300,300,303.098907,25,-6.167997,302.945129,303.218872,-0.273743,2.503142,2.532356,1.657227,0.936199,0.377138,-0.012889,0.421096,0.248282,86.277367,0.001103,2.413877,-0.000026,1,2.436657,-0.000021,1,0.600512,0.600643,0.106516,0,PSF-00281_20230627085242,PFA-00299,PSA-00311,PSF-00281,RHS-00465,2.0.0,2021-01-19T12:57:14.097Z
6,8:54:47,6/27/23,Auto gsw+F,LI-COR Default,,6,LCOR-003,8,0.331946,2.918237,0.298044,1.710928,1.225544,1.177298,1.796501,0.570957,11.659679,12.13749,17.79211,0.441786,PSF-00281_20230627085447,0,0,0,89.402321,349.262878,0.744026,0.5,0.8,39.329174,62.76,60.29,17.07,15.76,100.97,156.3,158,-1.1,132,4.05,-29,153,97,,,,,,,,0:00:00,0000-00-00,0,0,0,0,0,8:52:31,6/27/23,-0.99,0.004,0.004,0.008,0.021,0.217,0.147,1,150,0.005,2,0,mpf,7000,500,5,2,300,300,300,337.003479,25,-8.478047,337.219482,337.118042,0.10144,2.503875,2.533785,1.657027,0.935813,0.374921,-0.012378,0.429073,0.229401,89.402321,0.001067,2.413877,-0.000026,1,2.436657,-0.000021,1,0.600512,0.600643,0.106516,0,PSF-00281_20230627085447,PFA-00299,PSA-00311,PSF-00281,RHS-00465,2.0.0,2021-01-19T12:57:14.097Z
7,8:58:59,6/27/23,Auto gsw+F,LI-COR Default,,7,LCOR-251,8,0.27291,2.918262,0.249571,1.41594,1.240982,1.201064,1.80517,0.564188,11.89576,12.291121,17.879032,0.441786,PSF-00281_20230627085859,0,0,0,88.704941,343.168243,0.741512,0.5,0.8,61.986176,63.23,61.19,17.15,15.83,100.97,156.3,158,-1.1,209,4.042,-14,162,141,,,,,,,,0:00:00,0000-00-00,0,0,0,0,0,8:52:31,6/27/23,-0.99,0.005,0.002,-0.012,0.024,0.142,0.245,1,150,0.005,2,0,mpf,7000,500,5,2,300,300,300,330.986389,25,-8.414535,330.45459,331.11441,-0.659821,2.504982,2.53437,1.657054,0.935803,0.373708,-0.012449,0.446346,0.30085,88.704941,0.001074,2.413877,-0.000026,1,2.436657,-0.000021,1,0.600512,0.600643,0.106516,0,PSF-00281_20230627085859,PFA-00299,PSA-00311,PSF-00281,RHS-00465,2.0.0,2021-01-19T12:57:14.097Z
8,9:05:10,6/27/23,Auto gsw+F,LI-COR Default,,8,LCOR-001,8,0.405262,2.919282,0.35586,1.920513,1.285627,1.23156,1.822057,0.536431,12.199516,12.735092,18.04884,0.441786,PSF-00281_20230627090510,0,0,0,85.540298,337.447266,0.746508,0.5,0.8,67.017502,64.21,61.51,17.46,15.98,100.95,156.4,157.8,-0.9,224,4.039,-9,-174,157,,,,,,,,0:00:00,0000-00-00,0,0,0,0,0,9:04:55,6/27/23,-0.95,-0.002,-0.001,0.016,-0.004,0.087,1.081,1,150,0.005,2,0,mpf,7000,500,5,2,300,300,300,324.102417,25,-9.238385,325.515045,324.213257,1.301788,2.505321,2.535532,1.658139,0.935382,0.369002,-0.014267,0.468804,0.315218,85.540298,0.001102,2.413877,-0.000026,1,2.436657,-0.000021,1,0.600512,0.600643,0.106516,0,PSF-00281_20230627090510,PFA-00299,PSA-00311,PSF-00281,RHS-00465,2.0.0,2021-01-19T12:57:14.097Z
9,9:07:27,6/27/23,Auto gsw+F,LI-COR Default,,9,LCOR-163,8,0.314046,2.918747,0.283538,1.77786,1.278816,1.228738,1.901865,0.623049,12.171026,12.667064,18.838552,0.441786,PSF-00281_20230627090727,0,0,0,98.095535,306.986542,0.680457,0.5,0.8,95.619164,63.68,61.19,17.51,16.65,100.96,156.3,157.5,-0.8,351,4.035,-52,-173,31,,,,,,,,0:00:00,0000-00-00,0,0,0,0,0,9:04:55,6/27/23,-0.95,0.004,-0.004,-9999,-0.051,0.577,-9999,1,150,0.005,2,0,mpf,7000,500,5,2,300,300,300,293.639648,25,-9.274678,293.330658,293.700531,-0.369873,2.504911,2.534846,1.65757,0.934546,0.368296,-0.007777,0.476376,0.433192,98.095535,0.001095,2.413877,-0.000026,1,2.436657,-0.000021,1,0.600512,0.600643,0.106516,0,PSF-00281_20230627090727,PFA-00299,PSA-00311,PSF-00281,RHS-00465,2.0.0,2021-01-19T12:57:14.097Z
10,9:10:27,6/27/23,Auto gsw+F,LI-COR Default,,10,LCOR-504,8,0.047327,2.920813,0.046572,0.337352,1.214667,1.205174,1.93457,0.719903,11.937346,12.031377,19.162079,0.441786,PSF-00281_20230627091027,0,0,0,62.717201,159.616806,0.607076,0.5,0.8,62.385895,59.81,59.34,17.69,16.92,100.96,156.6,157.6,-0.7,257,4.03,11,-126,223,,,,,,,,0:00:00,0000-00-00,0,0,0,0,0,9:04:55,6/27/23,-0.95,0.001,-0.001,-9999,0.042,0.041,-9999,1,150,0.005,2,0,mpf,7000,500,5,2,300,300,300,155.01738,25,-3.159307,155.276657,155.091095,0.185562,2.502588,2.52985,1.659772,0.934872,0.365663,-0.006863,0.487761,0.345416,62.717201,0.001066,2.413877,-0.000026,1,2.436657,-0.000021,1,0.600512,0.600643,0.106516,0,PSF-00281_20230627091027,PFA-00299,PSA-00311,PSF-00281,RHS-00465,2.0.0,2021-01-19T12:57:14.097Z
11,9:14:20,6/27/23,Auto gsw+F,LI-COR Default,,11,XXXXXXX,8,0.350806,2.917997,0.313158,2.180562,1.310781,1.249349,2.002156,0.691375,12.376288,12.984848,19.833735,0.441786,PSF-00281_20230627091420,0,0,0,92.262268,380.019073,0.757217,0.5,0.8,79.46328,62.82,59.87,18.12,17.46,100.95,156.2,157.7,-0.9,262,4.029,4,-100,194,,,,,,,,0:00:00,0000-00-00,0,0,0,0,0,9:04:55,6/27/23,-0.95,0.002,0.002,0.011,-0.388,-0.117,0.593,1,150,0.005,2,0,mpf,7000,500,5,2,300,300,300,371.6297,25,-5.748813,372.1987,371.783875,0.414825,2.503173,2.533647,1.656772,0.934969,0.359378,-0.005757,0.50143,0.350476,92.262268,0.001059,2.413877,-0.000026,1,2.436657,-0.000021,1,0.600512,0.600643,0.106516,0,PSF-00281_20230627091420,PFA-00299,PSA-00311,PSF-00281,RHS-00465,2.0.0,2021-01-19T12:57:14.097Z
12,9:15:59,6/27/23,Auto gsw+F,LI-COR Default,,12,LCOR-164,8,0.387583,2.919106,0.342154,2.883444,1.312713,1.23155,2.148858,0.836145,12.199725,13.003727,21.286573,0.441786,PSF-00281_20230627091559,0,0,0,79.237106,190.904938,0.584939,0.5,0.8,300.957642,60.85,57.09,18.65,18.59,100.95,156.4,156.1,0.2,1286,4.026,3,169,141,,,,,,,,0:00:00,0000-00-00,0,0,0,0,0,9:15:44,6/27/23,-0.99,0.001,0.001,0.009,0.472,1.076,2.396,1,150,0.005,2,0,mpf,7000,500,5,2,300,300,300,183.794983,25,-4.825156,185.845261,183.992889,1.852371,2.499599,2.531086,1.657951,0.930991,0.351781,0.000451,0.507287,1.302614,79.237106,0.001088,2.413877,-0.000026,1,2.436657,-0.000021,1,0.600512,0.600643,0.106516,0,PSF-00281_20230627091559,PFA-00299,PSA-00311,PSF-00281,RHS-00465,2.0.0,2021-01-19T12:57:14.097Z
13,9:18:01,6/27/23,Auto gsw+F,LI-COR Default,,13,LCOR-289,8,0.119357,2.919953,0.11467,1.056911,1.283989,1.254267,2.197851,0.913863,12.431936,12.726525,21.784468,0.441786,PSF-00281_20230627091801,0,0,0,72.475075,171.516037,0.577444,0.5,0.8,318.779846,57.81,56.47,19.12,18.95,100.89,156.5,157.6,-0.7,1380,4.022,-33,151,96,,,,,,,,0:00:00,0000-00-00,0,0,0,0,0,9:15:44,6/27/23,-0.99,0.001,0.004,-9999,-0.004,0.205,-9999,1,150,0.005,2,0,mpf,7000,500,5,2,300,300,300,163.875458,25,-5.222564,164.383652,164.034698,0.348953,2.498741,2.527079,1.658854,0.934637,0.34524,-0.000723,0.513816,1.38989,72.475075,0.001084,2.413877,-0.000026,1,2.436657,-0.000021,1,0.600512,0.600643,0.106516,0,PSF-00281_20230627091801,PFA-00299,PSA-00311,PSF-00281,RHS-00465,2.0.0,2021-01-19T12:57:14.097Z
14,9:21:18,6/27/23,Auto gsw+F,LI-COR Default,,14,LCOR-040,8,0.244478,2.919039,0.225585,1.761442,1.3193,1.269705,2.094438,0.775138,12.574141,13.065286,20.741631,0.441786,PSF-00281_20230627092118,0,0,0,103.984596,369.088379,0.718266,0.5,0.8,100.513512,57.63,55.47,19.6,18.18,100.98,156.4,157.6,-0.8,350,4.016,-43,118,145,,,,,,,,0:00:00,0000-00-00,0,0,0,0,0,9:15:44,6/27/23,-0.99,0.003,-0.001,0.016,-0.243,-1.429,1.811,1,150,0.005,2,0,mpf,7000,500,5,2,300,300,300,353.430756,25,-11.007669,352.850311,353.319855,-0.469543,2.497396,2.526778,1.657881,0.934786,0.33859,-0.014088,0.524551,0.431836,103.984596,0.00109,2.413877,-0.000026,1,2.436657,-0.000021,1,0.600512,0.600643,0.106516,0,PSF-00281_20230627092118,PFA-00299,PSA-00311,PSF-00281,RHS-00465,2.0.0,2021-01-19T12:57:14.097Z
15,9:24:50,6/27/23,Auto gsw+F,LI-COR Default,,15,LCOR-277,8,0.180796,2.918416,0.170249,2.086983,1.33198,1.27321,2.545789,1.213809,12.611373,13.193501,25.216505,0.441786,PSF-00281_20230627092450,0,0,0,75.863243,132.45192,0.427239,0.5,0.8,180.390656,56.73,54.22,20.01,21.32,100.96,156.3,157.5,-0.8,1056,4.014,-40,172,68,,,,,,,,0:00:00,0000-00-00,0,0,0,0,0,9:15:44,6/27/23,-0.99,-0.004,0.002,-9999,-0.818,-2.018,-9999,1,150,0.005,2,0,mpf,7000,500,5,2,300,300,300,124.385834,25,-5.590031,124.044296,124.444183,-0.399887,2.495751,2.52553,1.657218,0.934452,0.333056,0.015225,0.535117,1.088072,75.863243,0.001065,2.413877,-0.000026,1,2.436657,-0.000021,1,0.600512,0.600643,0.106516,0,PSF-00281_20230627092450,PFA-00299,PSA-00311,PSF-00281,RHS-00465,2.0.0,2021-01-19T12:57:14.097Z
16,9:28:10,6/27/23,Auto gsw+F,LI-COR Default,,16,LCOR-111,8,0.17759,2.919225,0.167406,1.540853,1.326438,1.283077,2.239183,0.912745,12.710274,13.139817,22.181549,0.441786,PSF-00281_20230627092810,0,0,0,82.192543,222.123154,0.629969,0.5,0.8,74.795349,55.49,53.68,20.3,19.25,100.95,156.4,157.4,-0.7,297,4.01,-48,159,60,,,,,,,,0:00:00,0000-00-00,0,0,0,0,0,9:28:01,6/27/23,-0.82,0.004,0.003,-9999,-0.04,-0.344,-9999,1,150,0.005,2,0,mpf,7000,500,5,2,300,300,300,214.267014,25,-5.394956,214.605331,214.394867,0.210464,2.495011,2.523658,1.658078,0.934329,0.329229,-0.010293,0.545696,0.382528,82.192543,0.001066,2.413877,-0.000026,1,2.436657,-0.000021,1,0.600512,0.600643,0.106516,0,PSF-00281_20230627092810,PFA-00299,PSA-00311,PSF-00281,RHS-00465,2.0.0,2021-01-19T12:57:14.097Z
17,9:30:10,6/27/23,Auto gsw+F,LI-COR Default,,17,LCOR-588,8,0.276974,2.92007,0.252979,2.43736,1.390507,1.32201,2.345056,0.954549,13.096665,13.775236,23.2316,0.441786,PSF-00281_20230627093010,0,0,0,90.406181,304.021271,0.702632,0.5,0.8,106.561806,57.16,54.35,20.58,19.99,100.94,156.5,157.4,-0.6,379,4.01,-38,-158,221,,,,,,,,0:00:00,0000-00-00,0,0,0,0,0,9:28:01,6/27/23,-0.82,0.001,0.002,0.018,-0.009,0.022,0.052,1,150,0.005,2,0,mpf,7000,500,5,2,300,300,300,287.036072,25,-11.744418,287.249908,287.197357,0.052551,2.495807,2.525791,1.658979,0.934186,0.325499,-0.005416,0.551826,0.459087,90.406181,0.001047,2.413877,-0.000026,1,2.436657,-0.000021,1,0.600512,0.600643,0.106516,0,PSF-00281_20230627093010,PFA-00299,PSA-00311,PSF-00281,RHS-00465,2.0.0,2021-01-19T12:57:14.097Z
18,9:31:07,6/27/23,Auto gsw+F,LI-COR Default,,18,LCOR-035,8,0.153453,2.919359,0.145789,1.68886,1.3224,1.274886,2.469611,1.147211,12.631639,13.10241,24.469034,0.441786,PSF-00281_20230627093107,0,0,0,127.974632,280.692902,0.544076,0.5,0.8,168.457428,53.86,51.93,20.73,20.83,100.93,156.4,157.3,-0.6,774,4.009,-33,-128,170,,,,,,,,0:00:00,0000-00-00,0,0,0,0,0,9:28:01,6/27/23,-0.82,0,0.002,-9999,-1.63,-2.759,-9999,1,150,0.005,2,0,mpf,7000,500,5,2,300,300,300,267.296783,25,-9.628535,265.854126,266.899994,-1.045868,2.492708,2.521451,1.658221,0.934011,0.323544,0.001991,0.554574,0.826301,127.974632,0.001068,2.413877,-0.000026,1,2.436657,-0.000021,1,0.600512,0.600643,0.106516,0,PSF-00281_20230627093107,PFA-00299,PSA-00311,PSF-00281,RHS-00465,2.0.0,2021-01-19T12:57:14.097Z
19,9:31:59,6/27/23,Auto gsw+F,LI-COR Default,,19,LCOR-218,8,0.094702,2.921364,0.091728,1.229247,1.371092,1.336581,2.696384,1.325292,13.242813,13.584756,26.715719,0.441786,PSF-00281_20230627093159,0,0,0,26.628971,47.660286,0.441275,0.5,0.8,159.599152,55.49,54.09,20.84,22.26,100.93,156.7,157.3,-0.4,904,4.006,-51,174,58,,,,,,,,0:00:00,0000-00-00,0,0,0,0,0,9:28:01,6/27/23,-0.82,0.001,0.002,-9999,-5.138,-1.603,-9999,1,150,0.005,2,0,mpf,7000,500,5,2,300,300,300,46.094658,25,-1.937593,45.531036,44.884678,0.646358,2.495438,2.523564,1.660362,0.934021,0.322191,0.016526,0.556978,0.947317,26.628971,0.001064,2.413877,-0.000026,1,2.436657,-0.000021,1,0.600512,0.600643,0.106516,0,PSF-00281_20230627093159,PFA-00299,PSA-00311,PSF-00281,RHS-00465,2.0.0,2021-01-19T12:57:14.097Z
20,9:33:22,6/27/23,Auto gsw+F,LI-COR Default,,20,LCOR-066,8,0.199765,2.918324,0.186966,1.878512,1.347761,1.294881,2.343289,0.995528,12.82956,13.35349,23.217091,0.441786,PSF-00281_20230627093322,0,0,0,78.393105,154.343323,0.492086,0.5,0.8,111.611794,54.42,52.28,20.87,19.98,100.93,156.3,157.5,-0.8,567,4.002,-49,174,78,,,,,,,,0:00:00,0000-00-00,0,0,0,0,0,9:28:01,6/27/23,-0.82,0.002,0.003,0.013,0.304,0.313,0.96,1,150,0.005,2,0,mpf,7000,500,5,2,300,300,300,145.033844,25,-6.639806,143.747086,144.831787,-1.084702,2.493135,2.522156,1.65712,0.934447,0.321705,-0.008723,0.56054,0.633796,78.393105,0.001069,2.413877,-0.000026,1,2.436657,-0.000021,1,0.600512,0.600643,0.106516,0,PSF-00281_20230627093322,PFA-00299,PSA-00311,PSF-00281,RHS-00465,2.0.0,2021-01-19T12:57:14.097Z
21,9:37:05,6/27/23,Auto gsw+F,LI-COR Default,,21,LCOR-338,8,0.252298,2.919635,0.23223,2.056934,1.314002,1.256144,2.192374,0.878372,12.44662,13.019914,21.723347,0.441786,PSF-00281_20230627093705,0,0,0,97.782257,338.679413,0.711284,0.5,0.8,104.531227,53.35,51,20.78,18.91,100.92,156.4,157,-0.3,367,4,15,167,139,,,,,,,,0:00:00,0000-00-00,0,0,0,0,0,9:28:01,6/27/23,-0.82,0.001,0.001,-9999,-0.12,-0.136,-9999,1,150,0.005,2,0,mpf,7000,500,5,2,300,300,300,322.806702,25,-10.971376,322.898987,322.962891,-0.063904,2.491518,2.520769,1.658515,0.933122,0.322875,-0.019157,0.570517,0.448161,97.782257,0.001089,2.413877,-0.000026,1,2.436657,-0.000021,1,0.600512,0.600643,0.106516,0,PSF-00281_20230627093705,PFA-00299,PSA-00311,PSF-00281,RHS-00465,2.0.0,2021-01-19T12:57:14.097Z
22,9:40:15,6/27/23,Auto gsw+F,LI-COR Default,,22,LCOR-077,8,0.194844,2.92056,0.182658,1.761629,1.30491,1.255378,2.261278,0.956369,12.436131,12.926808,22.400873,0.441786,PSF-00281_20230627094015,0,0,0,58.022617,177.740723,0.673555,0.5,0.8,77.771736,53.31,51.28,20.68,19.4,100.95,156.6,157,-0.3,289,3.996,-33,154,99,,,,,,,,0:00:00,0000-00-00,0,0,0,0,0,9:40:00,6/27/23,-0.74,-0.004,0.002,0.005,2.032,1.442,-6.708,1,150,0.005,2,0,mpf,7000,500,5,2,300,300,300,153.247833,25,-16.803663,148.988846,153.669418,-4.680573,2.491893,2.52061,1.659502,0.933133,0.324157,-0.012805,0.57829,0.37494,58.022617,0.001085,2.413877,-0.000026,1,2.436657,-0.000021,1,0.600512,0.600643,0.106516,0,PSF-00281_20230627094015,PFA-00299,PSA-00311,PSF-00281,RHS-00465,2.0.0,2021-01-19T12:57:14.097Z
23,9:42:36,6/27/23,Auto gsw+F,LI-COR Default,,23,LCOR-604,8,0.150871,2.919068,0.143456,1.370231,1.295157,1.25658,2.242475,0.947318,12.447764,12.82991,22.2141,0.441786,PSF-00281_20230627094236,0,0,0,72.27874,208.293198,0.652995,0.5,0.8,70.956131,53.07,51.49,20.63,19.27,100.95,156.4,157.2,-0.5,272,3.994,-47,155,97,,,,,,,,0:00:00,0000-00-00,0,0,0,0,0,9:40:00,6/27/23,-0.74,0.002,0.002,-9999,-7.933,-2.241,-9999,1,150,0.005,2,0,mpf,7000,500,5,2,300,300,300,208.293198,25,-3.362547,190.102097,203.476334,-13.374237,2.492165,2.520307,1.657911,0.933676,0.324801,-0.013698,0.584133,0.359127,72.27874,0.001052,2.413877,-0.000026,1,2.436657,-0.000021,1,0.600512,0.600643,0.106516,0,PSF-00281_20230627094236,PFA-00299,PSA-00311,PSF-00281,RHS-00465,2.0.0,2021-01-19T12:57:14.097Z
24,9:46:04,6/27/23,Auto gsw+F,LI-COR Default,,24,LCOR-614,8,0.031736,2.920419,0.031395,0.311881,1.250756,1.241981,2.236245,0.98549,12.303539,12.390467,22.153107,0.441786,PSF-00281_20230627094604,0,0,0,83.750725,151.713181,0.447967,0.5,0.8,63.122528,51.7,51.34,20.49,19.22,100.94,156.5,157.1,-0.4,352,3.99,-12,-174,114,,,,,,,,0:00:00,0000-00-00,0,0,0,0,0,9:40:00,6/27/23,-0.74,0.002,0.003,-9999,-0.432,2.252,-9999,1,150,0.005,2,0,mpf,7000,500,5,2,300,300,300,144.327515,25,-5.649914,141.547318,143.619659,-2.072342,2.492001,2.518528,1.659351,0.933559,0.326668,-0.012625,0.59324,0.434091,83.750725,0.001071,2.413877,-0.000026,1,2.436657,-0.000021,1,0.600512,0.600643,0.106516,0,PSF-00281_20230627094604,PFA-00299,PSA-00311,PSF-00281,RHS-00465,2.0.0,2021-01-19T12:57:14.097Z
25,9:47:31,6/27/23,Auto gsw+F,LI-COR Default,,25,LCOR-079,8,0.132584,2.918839,0.126823,1.2044,1.274503,1.240579,2.216675,0.942172,12.288313,12.624341,21.956841,0.441786,PSF-00281_20230627094731,0,0,0,82.080246,435.058502,0.811335,0.5,0.8,135.991058,52.81,51.4,20.45,19.08,100.96,156.3,157.1,-0.5,419,3.988,-41,162,90,,,,,,,,0:00:00,0000-00-00,0,0,0,0,0,9:40:00,6/27/23,-0.74,0.002,0.004,-9999,0.071,-0.358,-9999,1,150,0.005,2,0,mpf,7000,500,5,2,300,300,300,214.502335,25,-146.574768,172.856567,225.089691,-52.233124,2.492087,2.519992,1.657667,0.933489,0.327165,-0.013715,0.597329,0.496173,82.080246,0.001073,2.413877,-0.000026,1,2.436657,-0.000021,1,0.600512,0.600643,0.106516,0,PSF-00281_20230627094731,PFA-00299,PSA-00311,PSF-00281,RHS-00465,2.0.0,2021-01-19T12:57:14.097Z
26,9:49:34,6/27/23,Auto gsw+F,LI-COR Default,,26,LCOR-502,8,0.100507,2.919859,0.097162,0.924446,1.262397,1.236382,2.20624,0.943843,12.249255,12.506999,21.857971,0.441786,PSF-00281_20230627094934,0,0,0,90.561745,290.82901,0.688608,0.5,0.8,106.128502,51.78,50.72,20.62,19.01,100.94,156.5,157.6,-0.7,385,3.987,9,175,148,,,,,,,,0:00:00,0000-00-00,0,0,0,0,0,9:40:00,6/27/23,-0.74,0.001,0,0.012,-0.1,-0.205,0.307,1,150,0.005,2,0,mpf,7000,500,5,2,300,300,300,275.826202,25,-10.358025,276.273621,275.991119,0.282501,2.491182,2.518615,1.658754,0.934763,0.325035,-0.016283,0.603121,0.464804,90.561745,0.001078,2.413877,-0.000026,1,2.436657,-0.000021,1,0.600512,0.600643,0.106516,0,PSF-00281_20230627094934,PFA-00299,PSA-00311,PSF-00281,RHS-00465,2.0.0,2021-01-19T12:57:14.097Z
27,9:51:07,6/27/23,Auto gsw+F,LI-COR Default,,27,LCOR-058,8,0.057283,2.919416,0.056181,0.566552,1.242076,1.226121,2.242512,1.000436,12.146097,12.304145,22.214581,0.441786,PSF-00281_20230627095107,0,0,0,86.182236,174.851135,0.507111,0.5,0.8,80.786079,51.2,50.54,20.54,19.27,100.95,156.4,140,10.5,398,3.983,-59,-173,104,,,,,,,,0:00:00,0000-00-00,0,0,0,0,0,9:50:56,6/27/23,-0.75,0.002,0.003,-9999,0.564,0.715,-9999,1,150,0.005,2,0,mpf,7000,500,5,2,300,300,300,166.962143,25,-5.63086,165.509109,166.784912,-1.275803,2.490975,2.517876,1.658282,0.890758,0.326078,-0.012635,0.606912,0.476861,86.182236,0.001095,2.413877,-0.000026,1,2.436657,-0.000021,1,0.600512,0.600643,0.106516,0,PSF-00281_20230627095107,PFA-00299,PSA-00311,PSF-00281,RHS-00465,2.0.0,2021-01-19T12:57:14.097Z
28,9:53:24,6/27/23,Auto gsw+F,LI-COR Default,,28,LCOR-585,8,0.142744,2.918384,0.136088,1.422424,1.269974,1.229898,2.306381,1.036407,12.183899,12.580915,22.848007,0.441786,PSF-00281_20230627095324,0,0,0,110.266685,285.820923,0.614211,0.5,0.8,95.555496,52.56,50.9,20.47,19.72,100.94,156.3,156.9,-0.4,389,3.981,-41,176,33,,,,,,,,0:00:00,0000-00-00,0,0,0,0,0,9:50:56,6/27/23,-0.75,0.003,0.004,0.019,0.274,0.719,-5.299,1,150,0.005,2,0,mpf,7000,500,5,2,300,300,300,279.868469,25,-4.075705,280.354492,279.982452,0.37204,2.491441,2.519678,1.657184,0.933001,0.326913,-0.00712,0.612863,0.468185,110.266685,0.001056,2.413877,-0.000026,1,2.436657,-0.000021,1,0.600512,0.600643,0.106516,0,PSF-00281_20230627095324,PFA-00299,PSA-00311,PSF-00281,RHS-00465,2.0.0,2021-01-19T12:57:14.097Z
29,9:55:50,6/27/23,Auto gsw+F,LI-COR Default,,29,LCOR-059,8,0.266184,2.919058,0.24394,2.451731,1.292818,1.223793,2.28938,0.996562,12.123242,12.807031,22.679255,0.441786,PSF-00281_20230627095550,0,0,0,81.989052,310.967712,0.736342,0.5,0.8,72.865898,52.96,50.13,20.64,19.6,100.95,156.4,157.4,-0.7,247,3.978,-60,-142,261,,,,,,,,0:00:00,0000-00-00,0,0,0,0,0,9:50:56,6/27/23,-0.75,-0.002,-0.001,0.009,-0.242,-0.076,-0.428,1,150,0.005,2,0,mpf,7000,500,5,2,300,300,300,293.890015,25,-11.798858,294.199341,294.065826,0.133514,2.490423,2.520173,1.657901,0.934266,0.324725,-0.01021,0.620091,0.336563,81.989052,0.001074,2.413877,-0.000026,1,2.436657,-0.000021,1,0.600512,0.600643,0.106516,0,PSF-00281_20230627095550,PFA-00299,PSA-00311,PSF-00281,RHS-00465,2.0.0,2021-01-19T12:57:14.097Z
30,9:58:25,6/27/23,Auto gsw+F,LI-COR Default,,30,LCOR-230,8,0.135041,2.919534,0.129071,1.418934,1.256037,1.216093,2.345877,1.08984,12.048128,12.443866,23.241173,0.441786,PSF-00281_20230627095825,0,0,0,84.006073,218.689285,0.615866,0.5,0.8,250.226837,50.29,48.69,21.01,19.99,100.94,156.4,157.4,-0.6,1016,3.975,26,164,149,,,,,,,,0:00:00,0000-00-00,0,0,0,0,0,9:50:56,6/27/23,-0.75,-0.001,-0.002,-9999,0.499,0.73,-9999,1,150,0.005,2,0,mpf,7000,500,5,2,300,300,300,214.27095,25,-2.963324,215.798019,214.444321,1.353699,2.48851,2.516587,1.658408,0.934259,0.319931,-0.010033,0.628875,1.051056,84.006073,0.001093,2.413877,-0.000026,1,2.436657,-0.000021,1,0.600512,0.600643,0.106516,0,PSF-00281_20230627095825,PFA-00299,PSA-00311,PSF-00281,RHS-00465,2.0.0,2021-01-19T12:57:14.097Z
31,9:59:34,6/27/23,Auto gsw+F,LI-COR Default,,31,LCOR-534,8,0.424076,2.9203,0.370302,4.257792,1.36752,1.247875,2.505753,1.138233,12.363854,13.549297,24.826826,0.441786,PSF-00281_20230627095934,0,0,0,76.647881,176.519257,0.565782,0.5,0.8,408.119904,54.22,49.48,21.17,21.06,100.93,156.5,157.7,-0.8,1803,3.973,-63,172,52,,,,,,,,0:00:00,0000-00-00,0,0,0,0,0,9:50:56,6/27/23,-0.75,0.001,0,0.012,0.416,0.825,1.532,1,150,0.005,2,0,mpf,7000,500,5,2,300,300,300,167.576187,25,-6.08543,169.03746,167.801865,1.235596,2.489498,2.521754,1.659225,0.935021,0.317912,-0.000224,0.632303,1.783432,76.647881,0.001102,2.413877,-0.000026,1,2.436657,-0.000021,1,0.600512,0.600643,0.106516,0,PSF-00281_20230627095934,PFA-00299,PSA-00311,PSF-00281,RHS-00465,2.0.0,2021-01-19T12:57:14.097Z
32,10:02:13,6/27/23,Auto gsw+F,LI-COR Default,,32,LCOR-493,10,0.304847,2.918871,0.27602,5.182862,1.427108,1.281395,3.278031,1.850923,12.69641,14.140173,32.479626,0.441786,PSF-00281_20230627100213,0,0,0,72.144272,88.2686,0.182673,0.5,0.8,69.202766,54.66,49.08,21.73,25.51,100.93,156.4,157.5,-0.7,947,3.972,-60,178,14,,,,,,,,0:00:00,0000-00-00,0,0,0,0,0,10:02:02,6/27/23,-0.75,-0.001,0,0.012,-0.091,-0.248,-0.351,1,150,0.005,2,0,mpf,7000,500,5,2,300,300,300,85.576775,25,-1.910373,85.313202,85.531982,-0.218781,2.488883,2.522235,1.657701,0.934395,0.310785,0.043018,0.638808,0.987201,72.144272,0.001059,2.413877,-0.000026,1,2.436657,-0.000021,1,0.600512,0.600643,0.106516,0,PSF-00281_20230627100213,PFA-00299,PSA-00311,PSF-00281,RHS-00465,2.0.0,2021-01-19T12:57:14.097Z
33,10:03:50,6/27/23,Auto gsw+F,LI-COR Default,,33,LCOR-584,10,0.144182,2.920784,0.1374,1.823461,1.299401,1.248144,2.612916,1.313515,12.366314,12.874149,25.88814,0.441786,PSF-00281_20230627100350,0,0,0,90.143677,149.696976,0.397826,0.5,0.8,155.073746,49.03,47.09,21.98,21.75,100.93,156.6,157.3,-0.5,975,3.968,-32,-174,10,,,,,,,,0:00:00,0000-00-00,0,0,0,0,0,10:02:02,6/27/23,-0.75,0.001,0.001,0.009,0.038,-0.328,-1.42,1,150,0.005,2,0,mpf,7000,500,5,2,300,300,300,142.600174,25,-5.164495,141.325241,142.298828,-0.973587,2.486278,2.514751,1.659741,0.933961,0.307733,-0.001688,0.642321,1.012703,90.143677,0.001082,2.413877,-0.000026,1,2.436657,-0.000021,1,0.600512,0.600643,0.106516,0,PSF-00281_20230627100350,PFA-00299,PSA-00311,PSF-00281,RHS-00465,2.0.0,2021-01-19T12:57:14.097Z
34,10:05:57,6/27/23,Auto gsw+F,LI-COR Default,,34,LCOR-616,10,0.246886,2.920765,0.227643,3.490341,1.344103,1.246036,2.859379,1.515276,12.345607,13.317248,28.33046,0.441786,PSF-00281_20230627100557,0,0,0,110.584618,158.101883,0.300548,0.5,0.8,182.431625,50.44,46.76,22.07,23.23,100.93,156.6,157.6,-0.7,1517,3.967,-61,162,47,,,,,,,,0:00:00,0000-00-00,0,0,0,0,0,10:02:02,6/27/23,-0.75,0.001,0.004,0.017,-1.143,-2.605,-2.38,1,150,0.005,2,0,mpf,7000,500,5,2,300,300,300,149.747375,25,-6.225158,148.058655,149.184326,-1.125671,2.485832,2.516615,1.659721,0.934849,0.306643,0.013653,0.646357,1.517617,110.584618,0.001068,2.413877,-0.000026,1,2.436657,-0.000021,1,0.600512,0.600643,0.106516,0,PSF-00281_20230627100557,PFA-00299,PSA-00311,PSF-00281,RHS-00465,2.0.0,2021-01-19T12:57:14.097Z
35,10:08:13,6/27/23,Auto gsw+F,LI-COR Default,,35,LCOR-514,10,0.260097,2.919497,0.238821,2.8604,1.323704,1.243245,2.509499,1.185796,12.318963,13.116203,24.865915,0.441786,PSF-00281_20230627100813,0,0,0,108.748558,323.469879,0.663806,0.5,0.8,76.263885,48.76,45.79,22.38,21.09,100.92,156.4,156.9,-0.3,287,3.965,-18,-145,156,,,,,,,,0:00:00,0000-00-00,0,0,0,0,0,10:02:02,6/27/23,-0.75,-0.002,0,0.013,0.479,-0.055,0.375,1,150,0.005,2,0,mpf,7000,500,5,2,300,300,300,303.564178,25,-13.733274,303.879272,303.796906,0.082367,2.484522,2.514324,1.658368,0.932989,0.302895,-0.013203,0.651897,0.373601,108.748558,0.001075,2.413877,-0.000026,1,2.436657,-0.000021,1,0.600512,0.600643,0.106516,0,PSF-00281_20230627100813,PFA-00299,PSA-00311,PSF-00281,RHS-00465,2.0.0,2021-01-19T12:57:14.097Z
36,10:09:31,6/27/23,Auto gsw+F,LI-COR Default,,36,LCOR-290,10,0.345912,2.921584,0.309293,3.089354,1.334127,1.247386,2.323843,0.989716,12.360757,13.2203,23.027721,0.441786,PSF-00281_20230627100931,0,0,0,76.002716,235.822327,0.677712,0.5,0.8,144.792343,49.12,45.93,22.38,19.84,100.92,156.7,157.4,-0.5,534,3.963,5,-168,148,,,,,,,,0:00:00,0000-00-00,0,0,0,0,0,10:02:02,6/27/23,-0.75,-0.001,0.005,0.013,-0.058,-0.094,0.119,1,150,0.005,2,0,mpf,7000,500,5,2,300,300,300,214.938278,25,-14.473652,214.791656,215.088776,-0.297119,2.484693,2.514807,1.660597,0.934231,0.302811,-0.026666,0.654409,0.603192,76.002716,0.001094,2.413877,-0.000026,1,2.436657,-0.000021,1,0.600512,0.600643,0.106516,0,PSF-00281_20230627100931,PFA-00299,PSA-00311,PSF-00281,RHS-00465,2.0.0,2021-01-19T12:57:14.097Z
37,10:11:05,6/27/23,Auto gsw+F,LI-COR Default,,37,LCOR-309,10,0.049596,2.919556,0.048767,0.604264,1.233888,1.216879,2.46127,1.227382,12.059833,12.228395,24.392319,0.441786,PSF-00281_20230627101105,0,0,0,105.997322,207.963837,0.490309,0.5,0.8,118.372086,45.62,45,22.31,20.77,100.9,156.4,157.3,-0.6,604,3.962,-64,179,254,,,,,,,,0:00:00,0000-00-00,0,0,0,0,0,10:02:02,6/27/23,-0.75,0.004,0,-9999,-0.626,-1.697,-9999,1,150,0.005,2,0,mpf,7000,500,5,2,300,300,300,195.457932,25,-10.06768,190.376404,193.541855,-3.165451,2.483495,2.510139,1.658431,0.93409,0.303668,-0.015913,0.656698,0.66776,105.997322,0.00109,2.413877,-0.000026,1,2.436657,-0.000021,1,0.600512,0.600643,0.106516,0,PSF-00281_20230627101105,PFA-00299,PSA-00311,PSF-00281,RHS-00465,2.0.0,2021-01-19T12:57:14.097Z
38,10:13:22,6/27/23,Auto gsw+F,LI-COR Default,,38,LCOR-300,10,0.16399,2.919637,0.155269,1.796303,1.278183,1.227648,2.424104,1.145921,12.166711,12.667542,24.024281,0.441786,PSF-00281_20230627101322,0,0,0,97.655655,317.548615,0.69247,0.5,0.8,255.041382,47.63,45.75,22.19,20.53,100.9,156.4,156.6,-0.1,921,3.959,8,-162,154,,,,,,,,0:00:00,0000-00-00,0,0,0,0,0,10:12:42,6/27/23,-0.71,0,0.001,0.002,0.016,-0.141,9.813,1,150,0.005,2,0,mpf,7000,500,5,2,300,300,300,305.550812,25,-8.282064,305.71283,305.68454,0.02829,2.484493,2.512791,1.658518,0.932071,0.305214,-0.017179,0.662543,0.962729,97.655655,0.001078,2.413877,-0.000026,1,2.436657,-0.000021,1,0.600512,0.600643,0.106516,0,PSF-00281_20230627101322,PFA-00299,PSA-00311,PSF-00281,RHS-00465,2.0.0,2021-01-19T12:57:14.097Z
39,10:14:51,6/27/23,Auto gsw+F,LI-COR Default,,39,LCOR-508,10,0.159189,2.918856,0.150956,2.727721,1.353432,1.276691,3.136442,1.783011,12.650618,13.411035,31.078733,0.441786,PSF-00281_20230627101451,0,0,0,69.679855,95.891113,0.273344,0.5,0.8,171.743347,50.18,47.34,22.27,24.77,100.92,156.3,157.2,-0.5,1571,3.937,-57,-175,30,,,,,,,,0:00:00,0000-00-00,0,0,0,0,0,10:12:42,6/27/23,-0.71,-0.002,-0.004,0.007,-0.744,-0.141,1.22,1,150,0.005,2,0,mpf,7000,500,5,2,300,300,300,91.591003,25,-3.26002,90.856079,91.221123,-0.365044,2.486544,2.516185,1.657686,0.933685,0.304228,0.028691,0.666903,1.567155,69.679855,0.001053,2.413877,-0.000026,1,2.436657,-0.000021,1,0.600512,0.600643,0.106516,0,PSF-00281_20230627101451,PFA-00299,PSA-00311,PSF-00281,RHS-00465,2.0.0,2021-01-19T12:57:14.097Z
40,10:34:51,6/27/23,Auto gsw+F,LI-COR Default,,40,LCOR-268,10,0.312484,2.919768,0.282274,4.961035,1.439235,1.29987,3.172565,1.733329,12.879021,14.259843,31.433548,0.441786,PSF-00281_20230627103451,0,0,0,99.750641,200.176376,0.501686,0.5,0.8,313.627716,41.2,37.21,26.59,24.96,100.93,156.5,157,-0.3,1563,3.934,-26,-160,165,,,,,,,,0:00:00,0000-00-00,0,0,0,0,0,10:34:42,6/27/23,-0.72,0.003,0.001,0.011,2.808,4.103,7.928,1,150,0.005,2,0,mpf,7000,500,5,2,300,300,300,178.577179,25,-16.325502,173.677689,176.790039,-3.11235,2.4725,2.503428,1.658657,0.933085,0.256012,-0.017792,0.70781,1.559814,99.750641,0.001095,2.413877,-0.000026,1,2.436657,-0.000021,1,0.600512,0.600643,0.106516,0,PSF-00281_20230627103451,PFA-00299,PSA-00311,PSF-00281,RHS-00465,2.0.0,2021-01-19T12:57:14.097Z
41,10:37:23,6/27/23,Auto gsw+F,LI-COR Default,,41,LCOR-344,10,0.10363,2.919169,0.100077,1.819221,1.357724,1.306548,3.151586,1.793862,12.944262,13.451267,31.223455,0.441786,PSF-00281_20230627103723,0,0,0,66.930412,122.120094,0.45193,0.5,0.8,37.837284,39.14,37.67,26.47,24.85,100.94,156.4,156.9,-0.3,209,3.933,-42,162,76,,,,,,,,0:00:00,0000-00-00,0,0,0,0,0,10:34:42,6/27/23,-0.72,-0.001,-0.001,0.013,0.362,0.636,1.438,1,150,0.005,2,0,mpf,7000,500,5,2,300,300,300,116.429329,25,-3.857947,117.162468,116.593575,0.568893,2.473135,2.500638,1.658019,0.932933,0.257254,-0.017648,0.710914,0.301151,66.930412,0.001127,2.413877,-0.000026,1,2.436657,-0.000021,1,0.600512,0.600643,0.106516,0,PSF-00281_20230627103723,PFA-00299,PSA-00311,PSF-00281,RHS-00465,2.0.0,2021-01-19T12:57:14.097Z
42,10:38:11,6/27/23,Auto gsw+F,LI-COR Default,,42,LCOR-092,10,0.208298,2.920391,0.194431,4.401116,1.395706,1.272102,3.623061,2.227355,12.606491,13.831399,35.904415,0.441786,PSF-00281_20230627103811,0,0,0,87.067368,110.892197,0.214847,0.5,0.8,171.507721,40.6,37.01,26.31,27.21,100.91,156.5,155.6,0.6,1996,3.932,-45,-167,63,,,,,,,,0:00:00,0000-00-00,0,0,0,0,0,10:34:42,6/27/23,-0.72,0.002,0.004,-9999,-0.604,-0.635,-9999,1,150,0.005,2,0,mpf,7000,500,5,2,300,300,300,106.370331,25,-3.299035,105.518463,106.166321,-0.647858,2.472272,2.502658,1.659322,0.929697,0.258816,0.010781,0.711436,1.962299,87.067368,0.001076,2.413877,-0.000026,1,2.436657,-0.000021,1,0.600512,0.600643,0.106516,0,PSF-00281_20230627103811,PFA-00299,PSA-00311,PSF-00281,RHS-00465,2.0.0,2021-01-19T12:57:14.097Z
43,10:38:35,6/27/23,Auto gsw+F,LI-COR Default,,43,LCOR-563,10,0.057573,2.918835,0.056459,1.100468,1.318418,1.287446,3.241064,1.922646,12.757062,13.063957,32.115097,0.441786,PSF-00281_20230627103835,0,0,0,53.454636,81.469254,0.343867,0.5,0.8,38.478989,38.5,37.6,26.25,25.32,100.92,156.3,156.2,0.1,280,3.932,-25,171,126,,,,,,,,0:00:00,0000-00-00,0,0,0,0,0,10:34:42,6/27/23,-0.72,-0.001,-0.001,-9999,0.82,0.078,-9999,1,150,0.005,2,0,mpf,7000,500,5,2,300,300,300,78.30191,25,-2.166693,78.499672,78.365463,0.134209,2.473072,2.499785,1.657663,0.931223,0.259483,-0.00991,0.712235,0.366655,53.454636,0.001115,2.413877,-0.000026,1,2.436657,-0.000021,1,0.600512,0.600643,0.106516,0,PSF-00281_20230627103835,PFA-00299,PSA-00311,PSF-00281,RHS-00465,2.0.0,2021-01-19T12:57:14.097Z
44,10:39:17,6/27/23,Auto gsw+F,LI-COR Default,,44,LCOR-062,10,0.257612,2.918245,0.236716,3.877092,1.379399,1.270314,2.99625,1.616851,12.589237,13.670306,29.693848,0.441786,PSF-00281_20230627103917,0,0,0,66.861748,147.093735,0.545448,0.5,0.8,37.919285,40.61,37.4,26.11,24.01,100.9,156.3,156.9,-0.4,174,3.932,-17,140,120,,,,,,,,0:00:00,0000-00-00,0,0,0,0,0,10:34:42,6/27/23,-0.72,0.002,0.002,0.009,0.311,0.623,1.47,1,150,0.005,2,0,mpf,7000,500,5,2,300,300,300,139.247772,25,-5.358663,140.137558,139.417435,0.720123,2.472834,2.502705,1.657036,0.932943,0.260922,-0.022997,0.713225,0.26813,66.861748,0.001081,2.413877,-0.000026,1,2.436657,-0.000021,1,0.600512,0.600643,0.106516,0,PSF-00281_20230627103917,PFA-00299,PSA-00311,PSF-00281,RHS-00465,2.0.0,2021-01-19T12:57:14.097Z
45,10:39:44,6/27/23,Auto gsw+F,LI-COR Default,,45,LCOR-003,10,0.345845,2.920126,0.309222,4.59556,1.435877,1.306805,2.903671,1.467794,12.947187,14.225969,28.76816,0.441786,PSF-00281_20230627103944,0,0,0,77.31485,232.056122,0.666827,0.5,0.8,34.235245,42.49,38.67,26.02,23.49,100.93,156.5,157.2,-0.4,128,3.929,-35,142,100,,,,,,,,0:00:00,0000-00-00,0,0,0,0,0,10:34:42,6/27/23,-0.72,-0.002,-0.003,0.014,0.245,0.525,1.298,1,150,0.005,2,0,mpf,7000,500,5,2,300,300,300,218.204498,25,-9.427109,219.151138,218.551758,0.59938,2.474546,2.505278,1.659039,0.933662,0.261826,-0.027775,0.713815,0.225869,77.31485,0.001097,2.413877,-0.000026,1,2.436657,-0.000021,1,0.600512,0.600643,0.106516,0,PSF-00281_20230627103944,PFA-00299,PSA-00311,PSF-00281,RHS-00465,2.0.0,2021-01-19T12:57:14.097Z
46,10:41:40,6/27/23,Auto gsw+F,LI-COR Default,,46,LCOR-251,10,0.235568,2.918015,0.217972,3.786962,1.393,1.286408,3.107598,1.714599,12.744284,13.800273,30.786587,0.441786,PSF-00281_20230627104140,0,0,0,65.644028,122.925781,0.465986,0.5,0.8,45.700375,42.2,38.97,25.63,24.62,100.94,156.2,157.1,-0.5,245,3.928,-22,163,121,,,,,,,,0:00:00,0000-00-00,0,0,0,0,0,10:34:42,6/27/23,-0.72,-0.001,-0.003,0.017,0.896,3.927,-3.543,1,150,0.005,2,0,mpf,7000,500,5,2,300,300,300,116.47081,25,-4.376029,116.813423,116.657104,0.156319,2.475009,2.504946,1.656792,0.933413,0.265986,-0.010749,0.714888,0.334508,65.644028,0.00109,2.413877,-0.000026,1,2.436657,-0.000021,1,0.600512,0.600643,0.106516,0,PSF-00281_20230627104140,PFA-00299,PSA-00311,PSF-00281,RHS-00465,2.0.0,2021-01-19T12:57:14.097Z
47,10:42:45,6/27/23,Auto gsw+F,LI-COR Default,,47,LCOR-001,10,0.39908,2.920803,0.351107,5.075325,1.42508,1.282597,2.853145,1.428065,12.707602,14.119282,28.268131,0.441786,PSF-00281_20230627104245,0,0,0,77.314499,218.236893,0.645731,0.5,0.8,372.511963,43.57,39.22,25.47,23.19,100.93,156.6,157.2,-0.4,1442,3.928,-54,-121,54,,,,,,,,0:00:00,0000-00-00,0,0,0,0,0,10:34:42,6/27/23,-0.72,0,0.005,0.017,-3.381,1.795,-4.299,1,150,0.005,2,0,mpf,7000,500,5,2,300,300,300,204.342834,25,-9.374484,205.467575,204.807922,0.659653,2.475358,2.506829,1.659762,0.933616,0.267634,-0.024746,0.716641,1.447615,77.314499,0.001083,2.413877,-0.000026,1,2.436657,-0.000021,1,0.600512,0.600643,0.106516,0,PSF-00281_20230627104245,PFA-00299,PSA-00311,PSF-00281,RHS-00465,2.0.0,2021-01-19T12:57:14.097Z
48,10:43:28,6/27/23,Auto gsw+F,LI-COR Default,,48,LCOR-163,10,0.452357,2.91827,0.391648,7.290939,1.451971,1.246987,3.286327,1.834355,12.357971,14.389418,32.568363,0.441786,PSF-00281_20230627104328,0,0,0,79.693436,121.586235,0.344552,0.5,0.8,216.029221,44.6,38.3,25.4,25.55,100.91,156.3,156.8,-0.3,1567,3.925,-48,173,56,,,,,,,,0:00:00,0000-00-00,0,0,0,0,0,10:34:42,6/27/23,-0.72,0.003,0.004,0.013,-0.029,0.076,0.386,1,150,0.005,2,0,mpf,7000,500,5,2,300,300,300,115.90612,25,-4.199101,115.329269,115.571007,-0.241737,2.47415,2.508221,1.657063,0.932742,0.268442,0.002403,0.718189,1.564088,79.693436,0.001056,2.413877,-0.000026,1,2.436657,-0.000021,1,0.600512,0.600643,0.106516,0,PSF-00281_20230627104328,PFA-00299,PSA-00311,PSF-00281,RHS-00465,2.0.0,2021-01-19T12:57:14.097Z
49,10:45:40,6/27/23,Auto gsw+F,LI-COR Default,,49,LCOR-504,10,0.054042,2.918468,0.053059,1.259122,1.241212,1.205737,3.578973,2.33776,11.947125,12.298639,35.462498,0.441786,PSF-00281_20230627104540,0,0,0,110.9823,138.51004,0.198742,0.5,0.8,141.730927,38.77,37.66,25.11,27,100.92,156.3,156.5,-0.1,1783,3.924,-19,-132,262,,,,,,,,0:00:00,0000-00-00,0,0,0,0,0,10:44:56,6/27/23,-0.65,0,0.001,-9999,-5.959,-4.944,-9999,1,150,0.005,2,0,mpf,7000,500,5,2,300,300,300,126.481178,25,-11.516679,117.413521,122.01236,-4.598839,2.473344,2.500227,1.657274,0.931865,0.271494,0.022074,0.722268,1.764375,110.9823,0.001058,2.413877,-0.000026,1,2.436657,-0.000021,1,0.600512,0.600643,0.106516,0,PSF-00281_20230627104540,PFA-00299,PSA-00311,PSF-00281,RHS-00465,2.0.0,2021-01-19T12:57:14.097Z
50,10:46:53,6/27/23,Auto gsw+F,LI-COR Default,,50,LCOR-164,10,0.359638,2.917813,0.320175,4.557366,1.350632,1.222302,2.757932,1.4073,12.111206,13.382763,27.327021,0.441786,PSF-00281_20230627104653,0,0,0,78.033684,195.194611,0.600226,0.5,0.8,359.939545,42.82,38.75,24.86,22.63,100.92,156.2,156.7,-0.3,1499,3.922,0,-178,154,,,,,,,,0:00:00,0000-00-00,0,0,0,0,0,10:44:56,6/27/23,-0.65,-0.001,-0.001,-9999,0.137,0.481,-9999,1,150,0.005,2,0,mpf,7000,500,5,2,300,300,300,182.925934,25,-8.416348,184.040314,183.138168,0.902145,2.47484,2.505806,1.656577,0.932317,0.274209,-0.024045,0.724584,1.500594,78.033684,0.001094,2.413877,-0.000026,1,2.436657,-0.000021,1,0.600512,0.600643,0.106516,0,PSF-00281_20230627104653,PFA-00299,PSA-00311,PSF-00281,RHS-00465,2.0.0,2021-01-19T12:57:14.097Z
51,10:47:53,6/27/23,Auto gsw+F,LI-COR Default,,51,XXXXXXX,10,0.001157,2.921012,0.001156,0.025602,1.230579,1.22986,3.413338,2.182758,12.186541,12.193674,33.822384,0.441786,PSF-00281_20230627104753,0,0,0,82.823753,108.660767,0.237777,0.5,0.8,144.748138,39.34,39.32,24.73,26.19,100.92,156.6,156.9,-0.2,1522,3.921,-16,-169,153,,,,,,,,0:00:00,0000-00-00,0,0,0,0,0,10:44:56,6/27/23,-0.65,0,0.001,-9999,-1.138,-0.252,-9999,1,150,0.005,2,0,mpf,7000,500,5,2,300,300,300,99.783897,25,-6.589903,97.282288,99.220711,-1.938423,2.47561,2.501066,1.659985,0.932971,0.27572,0.017259,0.726803,1.521709,82.823753,0.001067,2.413877,-0.000026,1,2.436657,-0.000021,1,0.600512,0.600643,0.106516,0,PSF-00281_20230627104753,PFA-00299,PSA-00311,PSF-00281,RHS-00465,2.0.0,2021-01-19T12:57:14.097Z
52,10:48:12,6/27/23,Auto gsw+F,LI-COR Default,,52,LCOR-289,10,0.093049,2.918735,0.090174,1.867514,1.304019,1.251448,3.34591,2.041891,12.400521,12.921443,33.154408,0.441786,PSF-00281_20230627104812,0,0,0,92.722893,157.945297,0.412943,0.5,0.8,279.477112,41.78,40.1,24.69,25.86,100.92,156.3,153.8,1.6,1692,3.922,-17,154,130,,,,,,,,0:00:00,0000-00-00,0,0,0,0,0,10:44:56,6/27/23,-0.65,0.002,0.002,0.002,-1.426,-2.096,7.836,1,150,0.005,2,0,mpf,7000,500,5,2,300,300,300,146.668915,25,-8.379148,144.26387,145.942139,-1.678268,2.476654,2.504417,1.657557,0.92504,0.276141,0.013855,0.727696,1.679878,92.722893,0.001088,2.413877,-0.000026,1,2.436657,-0.000021,1,0.600512,0.600643,0.106516,0,PSF-00281_20230627104812,PFA-00299,PSA-00311,PSF-00281,RHS-00465,2.0.0,2021-01-19T12:57:14.097Z
53,10:48:44,6/27/23,Auto gsw+F,LI-COR Default,,53,LCOR-040,10,0.15368,2.917831,0.145991,2.898662,1.290539,1.208881,3.248991,1.958452,11.980152,12.789387,32.197872,0.441786,PSF-00281_20230627104844,0,0,0,94.506027,164.808609,0.426571,0.5,0.8,241.03183,41.52,38.89,24.62,25.36,100.91,156.2,156.7,-0.3,1413,3.921,-62,168,49,,,,,,,,0:00:00,0000-00-00,0,0,0,0,0,10:44:56,6/27/23,-0.65,0,0,0.009,-0.942,-1.517,-3.081,1,150,0.005,2,0,mpf,7000,500,5,2,300,300,300,153.120514,25,-8.19224,152.520065,153.073196,-0.553131,2.475061,2.504067,1.656596,0.932409,0.276888,0.009012,0.72829,1.420093,94.506027,0.001076,2.413877,-0.000026,1,2.436657,-0.000021,1,0.600512,0.600643,0.106516,0,PSF-00281_20230627104844,PFA-00299,PSA-00311,PSF-00281,RHS-00465,2.0.0,2021-01-19T12:57:14.097Z
54,10:49:31,6/27/23,Auto gsw+F,LI-COR Default,,54,LCOR-277,10,0.257431,2.919058,0.236568,4.636917,1.366741,1.236342,3.298866,1.932125,12.252322,13.544593,32.692215,0.441786,PSF-00281_20230627104931,0,0,0,78.739288,131.3591,0.40058,0.5,0.8,233.03891,44.26,40.04,24.51,25.62,100.91,156.4,157.3,-0.6,1454,3.919,-53,178,84,,,,,,,,0:00:00,0000-00-00,0,0,0,0,0,10:44:56,6/27/23,-0.65,0.002,0.005,-9999,0.504,0.965,-9999,1,150,0.005,2,0,mpf,7000,500,5,2,300,300,300,120.978714,25,-7.234104,119.836807,120.996223,-1.159416,2.476609,2.507815,1.657901,0.934063,0.27813,0.013176,0.729693,1.458936,78.739288,0.001074,2.413877,-0.000026,1,2.436657,-0.000021,1,0.600512,0.600643,0.106516,0,PSF-00281_20230627104931,PFA-00299,PSA-00311,PSF-00281,RHS-00465,2.0.0,2021-01-19T12:57:14.097Z
55,10:50:09,6/27/23,Auto gsw+F,LI-COR Default,,55,LCOR-111,10,0.139479,2.919579,0.13312,2.970355,1.355517,1.271998,3.552649,2.197132,12.603897,13.431465,35.202271,0.441786,PSF-00281_20230627105009,0,0,0,70.385452,93.111786,0.244076,0.5,0.8,142.996552,44.1,41.38,24.43,26.87,100.92,156.4,156.9,-0.3,1465,3.919,-46,162,72,,,,,,,,0:00:00,0000-00-00,0,0,0,0,0,10:44:56,6/27/23,-0.65,0.002,0.003,-9999,0.182,0.254,-9999,1,150,0.005,2,0,mpf,7000,500,5,2,300,300,300,91.998695,25,-0.822037,92.858078,91.934219,0.923859,2.47839,2.507598,1.658455,0.932911,0.278952,0.028328,0.731016,1.468504,70.385452,0.001052,2.413877,-0.000026,1,2.436657,-0.000021,1,0.600512,0.600643,0.106516,0,PSF-00281_20230627105009,PFA-00299,PSA-00311,PSF-00281,RHS-00465,2.0.0,2021-01-19T12:57:14.097Z
56,10:50:51,6/27/23,Auto gsw+F,LI-COR Default,,56,LCOR-588,10,0.370175,2.918928,0.328514,4.494378,1.350062,1.223628,2.702944,1.352881,12.125392,13.378278,26.784492,0.441786,PSF-00281_20230627105051,0,0,0,85.230232,279.735626,0.695319,0.5,0.8,81.799637,44.05,39.92,24.39,22.3,100.91,156.4,157,-0.4,294,3.918,-40,-160,233,,,,,,,,0:00:00,0000-00-00,0,0,0,0,0,10:44:56,6/27/23,-0.65,0.003,0.003,-9999,0.149,0.318,-9999,1,150,0.005,2,0,mpf,7000,500,5,2,300,300,300,259.000183,25,-14.32848,259.335999,259.210022,0.125977,2.476473,2.507542,1.657762,0.93316,0.279502,-0.0223,0.73302,0.380005,85.230232,0.001071,2.413877,-0.000026,1,2.436657,-0.000021,1,0.600512,0.600643,0.106516,0,PSF-00281_20230627105051,PFA-00299,PSA-00311,PSF-00281,RHS-00465,2.0.0,2021-01-19T12:57:14.097Z
57,10:51:28,6/27/23,Auto gsw+F,LI-COR Default,,57,LCOR-218,10,0.080585,2.918764,0.07842,1.92305,1.255629,1.201464,3.670282,2.414652,11.903901,12.440563,36.364532,0.441786,PSF-00281_20230627105128,0,0,0,62.071682,76.497261,0.188576,0.5,0.8,131.19191,40.99,39.22,24.38,27.43,100.93,156.3,156.9,-0.3,1739,3.918,-35,164,101,,,,,,,,0:00:00,0000-00-00,0,0,0,0,0,10:44:56,6/27/23,-0.65,0,0.002,-9999,-0.012,0.161,-9999,1,150,0.005,2,0,mpf,7000,500,5,2,300,300,300,73.736069,25,-1.954379,73.341248,73.697609,-0.356361,2.475537,2.503379,1.657588,0.932891,0.279585,0.035376,0.734135,1.723821,62.071682,0.001048,2.413877,-0.000026,1,2.436657,-0.000021,1,0.600512,0.600643,0.106516,0,PSF-00281_20230627105128,PFA-00299,PSA-00311,PSF-00281,RHS-00465,2.0.0,2021-01-19T12:57:14.097Z
58,10:52:25,6/27/23,Auto gsw+F,LI-COR Default,,58,LCOR-035,10,0.147981,2.919675,0.140843,3.080661,1.305513,1.218848,3.461005,2.155493,12.076324,12.934992,34.291569,0.441786,PSF-00281_20230627105225,0,0,0,92.077377,128.989883,0.286166,0.5,0.8,199.991104,42.85,40.01,24.28,26.43,100.93,156.5,157,-0.4,1747,3.917,-34,-157,131,,,,,,,,0:00:00,0000-00-00,0,0,0,0,0,10:44:56,6/27/23,-0.65,-0.004,-0.003,0.01,-0.676,-1.262,-2.494,1,150,0.005,2,0,mpf,7000,500,5,2,300,300,300,122.680664,25,-4.475835,122.118118,122.578232,-0.460114,2.476603,2.505938,1.658558,0.933293,0.28063,0.024935,0.734954,1.731186,92.077377,0.00108,2.413877,-0.000026,1,2.436657,-0.000021,1,0.600512,0.600643,0.106516,0,PSF-00281_20230627105225,PFA-00299,PSA-00311,PSF-00281,RHS-00465,2.0.0,2021-01-19T12:57:14.097Z
59,10:53:10,6/27/23,Auto gsw+F,LI-COR Default,,59,LCOR-066,10,0.195645,2.918265,0.183353,3.722805,1.306677,1.201838,3.308993,2.002316,11.908317,12.94711,32.786903,0.441786,PSF-00281_20230627105310,0,0,0,70.724846,92.360344,0.234251,0.5,0.8,173.591827,43.05,39.6,24.22,25.67,100.92,156.3,157.4,-0.7,1853,3.915,-45,154,112,,,,,,,,0:00:00,0000-00-00,0,0,0,0,0,10:44:56,6/27/23,-0.65,0.004,0.005,-9999,0.107,0.357,-9999,1,150,0.005,2,0,mpf,7000,500,5,2,300,300,300,87.892769,25,-3.217829,87.134239,87.750793,-0.616554,2.476065,2.506215,1.657057,0.934174,0.281321,0.016981,0.736544,1.829258,70.724846,0.001068,2.413877,-0.000026,1,2.436657,-0.000021,1,0.600512,0.600643,0.106516,0,PSF-00281_20230627105310,PFA-00299,PSA-00311,PSF-00281,RHS-00465,2.0.0,2021-01-19T12:57:14.097Z
60,10:54:20,6/27/23,Auto gsw+F,LI-COR Default,,60,LCOR-338,10,0.22674,2.918894,0.210397,3.917359,1.334991,1.224767,3.171999,1.837008,12.13638,13.228607,31.431761,0.441786,PSF-00281_20230627105420,0,0,0,133.018967,193.524551,0.312651,0.5,0.8,206.397049,43.93,40.31,24.24,24.96,100.92,156.4,156.4,-0.1,1650,3.914,-7,-174,126,,,,,,,,0:00:00,0000-00-00,0,0,0,0,0,10:44:56,6/27/23,-0.65,0.001,0.003,-9999,-1.54,-2.528,-9999,1,150,0.005,2,0,mpf,7000,500,5,2,300,300,300,180.392151,25,-10.552193,175.402161,178.408508,-3.006348,2.477004,2.507409,1.657726,0.931765,0.281108,0.008739,0.738892,1.641191,133.018967,0.001058,2.413877,-0.000026,1,2.436657,-0.000021,1,0.600512,0.600643,0.106516,0,PSF-00281_20230627105420,PFA-00299,PSA-00311,PSF-00281,RHS-00465,2.0.0,2021-01-19T12:57:14.097Z
61,10:56:23,6/27/23,Auto gsw+F,LI-COR Default,,61,LCOR-077,10,0.155789,2.92063,0.1479,3.714752,1.298867,1.194447,3.769971,2.471104,11.835637,12.870331,37.356216,0.441786,PSF-00281_20230627105623,0,0,0,83.28009,108.969498,0.235749,0.5,0.8,176.785248,42.81,39.37,24.22,27.89,100.92,156.6,156.6,0,1875,3.912,-26,164,131,,,,,,,,0:00:00,0000-00-00,0,0,0,0,0,10:56:16,6/27/23,-0.73,0.001,0.002,-9999,-0.378,-0.653,-9999,1,150,0.005,2,0,mpf,7000,500,5,2,300,300,300,103.022217,25,-4.507592,101.421829,102.51236,-1.09053,2.47576,2.505991,1.659577,0.932266,0.281383,0.042519,0.742485,1.849804,83.28009,0.001036,2.413877,-0.000026,1,2.436657,-0.000021,1,0.600512,0.600643,0.106516,0,PSF-00281_20230627105623,PFA-00299,PSA-00311,PSF-00281,RHS-00465,2.0.0,2021-01-19T12:57:14.097Z
62,10:57:15,6/27/23,Auto gsw+F,LI-COR Default,,62,LCOR-604,10,0.191782,2.919092,0.179959,4.115083,1.382767,1.267049,3.633126,2.250359,12.55502,13.701647,36.000145,0.441786,PSF-00281_20230627105715,0,0,0,75.1884,105.251007,0.285628,0.5,0.8,195.184601,45.64,41.82,24.19,27.26,100.92,156.4,157.1,-0.5,1708,3.91,-53,165,78,,,,,,,,0:00:00,0000-00-00,0,0,0,0,0,10:56:16,6/27/23,-0.73,0.002,0.005,-9999,0.41,1.024,-9999,1,150,0.005,2,0,mpf,7000,500,5,2,300,300,300,97.665665,25,-5.668061,95.545288,97.131493,-1.586205,2.479016,2.509827,1.657937,0.933506,0.281674,0.035477,0.744362,1.695127,75.1884,0.001043,2.413877,-0.000026,1,2.436657,-0.000021,1,0.600512,0.600643,0.106516,0,PSF-00281_20230627105715,PFA-00299,PSA-00311,PSF-00281,RHS-00465,2.0.0,2021-01-19T12:57:14.097Z
63,10:58:38,6/27/23,Auto gsw+F,LI-COR Default,,63,LCOR-614,10,0.046219,2.919622,0.045499,0.98869,1.243199,1.215373,3.385621,2.142421,12.04446,12.32022,33.551807,0.441786,PSF-00281_20230627105838,0,0,0,66.439392,92.459061,0.281418,0.5,0.8,212.612396,41.13,40.21,24.15,26.06,100.91,156.4,156.7,-0.2,1889,3.91,-10,151,150,,,,,,,,0:00:00,0000-00-00,0,0,0,0,0,10:56:16,6/27/23,-0.73,-0.002,0,-9999,-7.615,-3.318,-9999,1,150,0.005,2,0,mpf,7000,500,5,2,300,300,300,88.505386,25,-2.894821,87.581993,88.312218,-0.730225,2.476898,2.503725,1.658502,0.932541,0.282129,0.022183,0.747746,1.862856,66.439392,0.00108,2.413877,-0.000026,1,2.436657,-0.000021,1,0.600512,0.600643,0.106516,0,PSF-00281_20230627105838,PFA-00299,PSA-00311,PSF-00281,RHS-00465,2.0.0,2021-01-19T12:57:14.097Z
64,10:59:23,6/27/23,Auto gsw+F,LI-COR Default,,64,LCOR-079,10,0.112403,2.920367,0.108237,2.583743,1.278455,1.205809,3.628544,2.350088,11.950213,12.670176,35.960804,0.441786,PSF-00281_20230627105923,0,0,0,70.166229,93.776115,0.251769,0.5,0.8,181.913986,42.28,39.88,24.16,27.23,100.9,156.5,157.2,-0.4,1806,3.908,-45,160,100,,,,,,,,0:00:00,0000-00-00,0,0,0,0,0,10:56:16,6/27/23,-0.73,0.001,0.001,-9999,0.321,0.623,-9999,1,150,0.005,2,0,mpf,7000,500,5,2,300,300,300,88.89949,25,-3.5549,87.980034,88.683708,-0.703674,2.476451,2.505286,1.659296,0.933771,0.282036,0.035592,0.749596,1.786236,70.166229,0.001075,2.413877,-0.000026,1,2.436657,-0.000021,1,0.600512,0.600643,0.106516,0,PSF-00281_20230627105923,PFA-00299,PSA-00311,PSF-00281,RHS-00465,2.0.0,2021-01-19T12:57:14.097Z
65,11:00:59,6/27/23,Auto gsw+F,LI-COR Default,,65,LCOR-502,10,0.167497,2.920353,0.158411,2.485075,1.257301,1.187425,2.808056,1.550756,11.77003,12.46265,27.834093,0.441786,PSF-00281_20230627110059,0,0,0,67.474724,151.121674,0.553507,0.5,0.8,258.767242,41.79,39.46,24.08,22.93,100.89,156.5,157,-0.3,1169,3.906,17,-179,202,,,,,,,,0:00:00,0000-00-00,0,0,0,0,0,10:56:16,6/27/23,-0.73,0.002,0.003,-9999,0.402,0.857,-9999,1,150,0.005,2,0,mpf,7000,500,5,2,300,300,300,141.102783,25,-6.825808,142.162079,141.343689,0.81839,2.475914,2.504625,1.659281,0.933087,0.282961,-0.011972,0.753099,1.193338,67.474724,0.001095,2.413877,-0.000026,1,2.436657,-0.000021,1,0.600512,0.600643,0.106516,0,PSF-00281_20230627110059,PFA-00299,PSA-00311,PSF-00281,RHS-00465,2.0.0,2021-01-19T12:57:14.097Z
66,11:01:57,6/27/23,Auto gsw+F,LI-COR Default,,66,LCOR-058,10,0.046802,2.918415,0.046063,1.080658,1.246556,1.216116,3.557367,2.310811,12.052718,12.354405,35.256451,0.441786,PSF-00281_20230627110157,0,0,0,84.630844,100.821358,0.160586,0.5,0.8,123.604538,41.44,40.43,24.07,26.9,100.9,156.3,156.8,-0.3,1924,3.906,-49,-175,110,,,,,,,,0:00:00,0000-00-00,0,0,0,0,0,10:56:16,6/27/23,-0.73,0.002,0.002,-9999,-1.4,-0.724,-9999,1,150,0.005,2,0,mpf,7000,500,5,2,300,300,300,97.011925,25,-3.111218,95.440147,96.364525,-0.924377,2.477191,2.50415,1.657216,0.932742,0.282999,0.032664,0.754802,1.89588,84.630844,0.001079,2.413877,-0.000026,1,2.436657,-0.000021,1,0.600512,0.600643,0.106516,0,PSF-00281_20230627110157,PFA-00299,PSA-00311,PSF-00281,RHS-00465,2.0.0,2021-01-19T12:57:14.097Z
67,11:02:50,6/27/23,Auto gsw+F,LI-COR Default,,67,LCOR-585,10,0.106182,2.917421,0.102453,1.729008,1.248605,1.199866,2.916237,1.667631,11.891843,12.374898,28.90275,0.441786,PSF-00281_20230627110250,0,0,0,85.994843,170.723862,0.496293,0.5,0.8,225.236938,41.41,39.79,24.11,23.56,100.9,156.2,156.8,-0.4,1135,3.906,-44,165,55,,,,,,,,0:00:00,0000-00-00,0,0,0,0,0,10:56:16,6/27/23,-0.73,0,-0.001,-0.001,0.324,-0.713,-20.272,1,150,0.005,2,0,mpf,7000,500,5,2,300,300,300,169.306396,25,-0.760339,171.700363,169.634674,2.065689,2.476343,2.504102,1.656162,0.932777,0.282553,-0.005471,0.756791,1.161569,85.994843,0.001093,2.413877,-0.000026,1,2.436657,-0.000021,1,0.600512,0.600643,0.106516,0,PSF-00281_20230627110250,PFA-00299,PSA-00311,PSF-00281,RHS-00465,2.0.0,2021-01-19T12:57:14.097Z
68,11:03:17,6/27/23,Auto gsw+F,LI-COR Default,,68,LCOR-059,10,0.228639,2.920811,0.212041,3.419806,1.30678,1.210689,2.900192,1.593413,11.998782,12.951108,28.742949,0.441786,PSF-00281_20230627110317,0,0,0,85.02388,261.690125,0.675097,0.5,0.8,43.29295,43.23,40.05,24.15,23.47,100.9,156.6,157.3,-0.5,160,3.904,-49,-112,234,,,,,,,,0:00:00,0000-00-00,0,0,0,0,0,10:56:16,6/27/23,-0.73,0,0.001,-9999,-0.284,-0.006,-9999,1,150,0.005,2,0,mpf,7000,500,5,2,300,300,300,251.411682,25,-6.95737,254.73439,251.723663,3.010727,2.47668,2.506574,1.65977,0.934034,0.282085,-0.006948,0.757634,0.255597,85.02388,0.001098,2.413877,-0.000026,1,2.436657,-0.000021,1,0.600512,0.600643,0.106516,0,PSF-00281_20230627110317,PFA-00299,PSA-00311,PSF-00281,RHS-00465,2.0.0,2021-01-19T12:57:14.097Z
69,11:04:10,6/27/23,Auto gsw+F,LI-COR Default,,69,LCOR-230,10,0.139743,2.920407,0.133361,2.866986,1.305174,1.224595,3.423352,2.118179,12.137441,12.936089,33.930187,0.441786,PSF-00281_20230627110410,0,0,0,93.210342,122.155006,0.23695,0.5,0.8,22.084864,42.9,40.25,24.26,26.24,100.89,156.5,157.1,-0.3,233,3.901,-46,178,67,,,,,,,,0:00:00,0000-00-00,0,0,0,0,0,10:56:16,6/27/23,-0.73,-0.005,-0.004,-9999,4.577,2.728,-9999,1,150,0.005,2,0,mpf,7000,500,5,2,300,300,300,117.148163,25,-3.787175,116.001602,116.729866,-0.728264,2.476924,2.506106,1.659338,0.933382,0.280868,0.023057,0.759131,0.323192,93.210342,0.001084,2.413877,-0.000026,1,2.436657,-0.000021,1,0.600512,0.600643,0.106516,0,PSF-00281_20230627110410,PFA-00299,PSA-00311,PSF-00281,RHS-00465,2.0.0,2021-01-19T12:57:14.097Z
70,11:07:38,6/27/23,Auto gsw+F,LI-COR Default,,70,LCOR-534,10,0.344574,2.918281,0.308185,4.886097,1.399669,1.262243,2.964667,1.564998,12.51074,13.872837,29.384338,0.441786,PSF-00281_20230627110738,0,0,0,67.139984,135.20993,0.503439,0.5,0.8,332.645813,45.27,40.82,24.53,23.83,100.89,156.3,157.1,-0.5,1652,3.898,-69,152,65,,,,,,,,0:00:00,0000-00-00,0,0,0,0,0,11:07:26,6/27/23,-0.74,0,0.002,0.021,0.075,-0.954,-17.04,1,150,0.005,2,0,mpf,7000,500,5,2,300,300,300,126.687531,25,-5.808696,127.708557,126.888954,0.819603,2.477639,2.509289,1.657074,0.933473,0.277866,-0.007134,0.763638,1.642574,67.139984,0.001081,2.413877,-0.000026,1,2.436657,-0.000021,1,0.600512,0.600643,0.106516,0,PSF-00281_20230627110738,PFA-00299,PSA-00311,PSF-00281,RHS-00465,2.0.0,2021-01-19T12:57:14.097Z
71,11:10:28,6/27/23,Auto gsw+F,LI-COR Default,,71,LCOR-493,10,0.160167,2.918139,0.151834,2.874713,1.31568,1.234753,3.183229,1.867549,12.238875,13.041024,31.552185,0.441786,PSF-00281_20230627111028,0,0,0,99.693062,141.219009,0.294054,0.5,0.8,37.868408,42.33,39.73,24.62,25.02,100.89,156.3,156.4,-0.1,322,3.897,-77,169,168,,,,,,,,0:00:00,0000-00-00,0,0,0,0,0,11:07:26,6/27/23,-0.74,0.002,0.003,-9999,-0.886,1.831,-9999,1,150,0.005,2,0,mpf,7000,500,5,2,300,300,300,130.872131,25,-8.066121,127.015472,129.664261,-2.648788,2.476172,2.505302,1.656924,0.931701,0.276902,0.005157,0.769187,0.405896,99.693062,0.001074,2.413877,-0.000026,1,2.436657,-0.000021,1,0.600512,0.600643,0.106516,0,PSF-00281_20230627111028,PFA-00299,PSA-00311,PSF-00281,RHS-00465,2.0.0,2021-01-19T12:57:14.097Z
72,11:11:35,6/27/23,Auto gsw+F,LI-COR Default,,72,LCOR-584,10,0.135216,2.920277,0.129232,2.392711,1.302836,1.235588,3.129581,1.826745,12.248066,12.914679,31.02273,0.441786,PSF-00281_20230627111135,0,0,0,97.757935,178.673996,0.45287,0.5,0.8,188.151779,42.1,39.93,24.55,24.73,100.88,156.5,156.8,-0.2,1039,3.895,-65,-163,353,,,,,,,,0:00:00,0000-00-00,0,0,0,0,0,11:07:26,6/27/23,-0.74,-0.002,-0.002,-9999,-1.815,-1.071,-9999,1,150,0.005,2,0,mpf,7000,500,5,2,300,300,300,165.105347,25,-10.322639,161.141037,163.88678,-2.745743,2.47645,2.505001,1.6592,0.932788,0.277709,0.00278,0.770586,1.072361,97.757935,0.001057,2.413877,-0.000026,1,2.436657,-0.000021,1,0.600512,0.600643,0.106516,0,PSF-00281_20230627111135,PFA-00299,PSA-00311,PSF-00281,RHS-00465,2.0.0,2021-01-19T12:57:14.097Z
73,11:12:25,6/27/23,Auto gsw+F,LI-COR Default,,73,LCOR-616,10,0.218388,2.917935,0.203181,3.65289,1.360953,1.258139,3.134542,1.773589,12.469382,13.488373,31.06637,0.441786,PSF-00281_20230627111225,0,0,0,136.164673,263.300568,0.482855,0.5,0.8,186.205597,43.86,40.54,24.59,24.76,100.9,156.2,156.8,-0.4,964,3.892,-57,151,58,,,,,,,,0:00:00,0000-00-00,0,0,0,0,0,11:07:26,6/27/23,-0.74,0.002,0.002,0.01,0.256,0.328,-2.008,1,150,0.005,2,0,mpf,7000,500,5,2,300,300,300,258.528473,25,-3.331698,261.101593,258.527893,2.5737,2.47726,2.507377,1.656706,0.932746,0.277198,0.002558,0.772313,1.003013,136.164673,0.001069,2.413877,-0.000026,1,2.436657,-0.000021,1,0.600512,0.600643,0.106516,0,PSF-00281_20230627111225,PFA-00299,PSA-00311,PSF-00281,RHS-00465,2.0.0,2021-01-19T12:57:14.097Z
