Obs#,Time,Date,configName,configAuthor,ID,,,,Fv/Fm,gsw,gbw,gtw,E_apparent,VPcham,VPref,VPleaf,VPDleaf,H2O_r,H2O_s,H2O_leaf,leaf_area,flashID,Fo,Fm,Fs,Fm',PhiPS2,PS2/1,abs,ETR,rh_s,rh_r,Tref,Tleaf,P_atm,flow,flow_s,leak_pct,Qamb,batt,pitch,roll,heading,angle_inc_leaf,direct_pct,slope_leaf,az_leaf,dec_solar,az_solar,zenith_solar,gps_time,gps_date,latitude,longitude,altitude,gps_sats,gps_HDOP,match_time,match_date,rh_adj,gsw1sec,gsw2sec,gsw4sec,flr1sec,flr2sec,flr4sec,auto,flow_set,gsw_limit,gsw_period,dark,flash_type,flash_intensity,modrate,flr_limit,flr_period,P1_dur,P2_dur,P3_dur,P1_Fmax,P2_ramp,P2_slp,P3_Fmax,P3_Pred,P3_DeltaF,v_humA,v_humB,v_flowIn,v_flowOut,v_temp,v_irt,v_pres,v_par,v_F,i_LED,b_rhr,m_rhr,span_rhr,b_rhs,m_rhs,span_rhs,z_flowIn,z_flowOut,z_quantum,z_flr,flashId,lciSerNum,lcpSerNum,lcfSerNum,lcrhSerNum,version,configUpdatedAt
1,4:23:36 AM,8/29/23,Night sampling,CH,LCOR-064,,,,0.78752,0.031033,2.917424,0.030707,0.232178,1.561938,1.55538,2.314025,0.752088,15.338259,15.402926,22.819582,0.441786,PSF-00508_20230829042336,90.267776,424.830078,0,0,0,0.5,0.8,0.255484,60.01,59.76,21.68,19.77,101.41,156.2,156.3,-0.1,1,4.098,50,-17,283,,,,,,,,0,0000-00-00,nan,nan,nan,0,nan,0.18130787,45167,0.01,-0.004,-0.006,-0.023,0.29,0.045,0.275,0,150,-9999,-9999,1,rectangular,6000,5,-9999,-9999,55537,55537,55537,0,-9999,0,0,0,0,2.494377,2.510811,1.652626,0.935607,0.311424,-0.021797,0.126372,0.108098,90.267776,0.000232,2.400422,-0.000034,1,2.415003,-0.000039,1,0.602514,0.600977,0.1074,0,PSF-00508_20230829042336,PFA-00566,PSA-00583,PSF-00508,RHS-0736,2.0.0,2022-09-01T17:42:39.413Z
2,4:23:55 AM,8/29/23,Night sampling,CH,LCOR-064,,,,0.777258,0.012079,2.91886,0.01203,0.103241,1.580629,1.577717,2.433701,0.853072,15.558382,15.5871,23.999519,0.441786,PSF-00508_20230829042355,90.722321,407.297028,0,0,0,0.5,0.8,0.254092,60.98,60.86,21.62,20.59,101.41,156.3,156.4,-0.1,1,4.093,49,-40,252,,,,,,,,0,0000-00-00,44.588623,-123.199371,67.900002,6,1.65,0.18130787,45167,0.01,0,0,0.001,-0.029,0.13,-0.056,0,150,-9999,-9999,1,rectangular,6000,5,-9999,-9999,55537,55537,55537,0,-9999,0,0,0,0,2.495892,2.512162,1.654098,0.935994,0.312245,-0.011845,0.129063,0.108103,90.722321,0.000239,2.400422,-0.000034,1,2.415003,-0.000039,1,0.602514,0.600977,0.1074,0,PSF-00508_20230829042355,PFA-00566,PSA-00583,PSF-00508,RHS-0736,2.0.0,2022-09-01T17:42:39.413Z
3,4:26:20 AM,8/29/23,Night sampling,CH,LCOR-213,,,,0.843549,0.028201,2.920841,0.027931,0.191435,1.574259,1.568867,2.256138,0.681879,15.471453,15.524622,22.249006,0.441786,PSF-00508_20230829042620,73.549744,470.113983,0,0,0,0.5,0.8,-0.000023,61.65,61.44,21.37,19.37,101.4,156.6,156.5,0.1,0,4.062,29,8,332,,,,,,,,0.4771875,45167,44.588604,-123.199356,71.099998,7,1.44,0.18130787,45167,0.01,-0.005,-0.012,-0.059,0.38,0.101,0.058,0,150,-9999,-9999,1,rectangular,6000,5,-9999,-9999,55537,55537,55537,0,-9999,0,0,0,0,2.496732,2.513153,1.656137,0.936087,0.315327,-0.022808,0.149665,0.1074,73.549744,0.000234,2.400422,-0.000034,1,2.415003,-0.000039,1,0.602514,0.600977,0.1074,0,PSF-00508_20230829042620,PFA-00566,PSA-00583,PSF-00508,RHS-0736,2.0.0,2022-09-01T17:42:39.413Z
4,4:26:37 AM,8/29/23,Night sampling,CH,LCOR-213,,,,0.832936,0.050918,2.921846,0.050046,0.359607,1.596128,1.586011,2.310734,0.714605,15.640593,15.740369,22.787516,0.441786,PSF-00508_20230829042637,73.272232,438.588379,0,0,0,0.5,0.8,-0.000854,62.66,62.26,21.33,19.75,101.4,156.7,156.4,0.2,0,4.09,47,8,335,,,,,,,,0.477384259,45167,44.588646,-123.19931,74.300003,9,1,0.18130787,45167,0.01,-0.001,-0.005,-0.014,-0.188,-0.121,-0.228,0,150,-9999,-9999,1,rectangular,6000,5,-9999,-9999,55537,55537,55537,0,-9999,0,0,0,0,2.497859,2.514558,1.657174,0.935881,0.315832,-0.018038,0.151868,0.107398,73.272232,0.000229,2.400422,-0.000034,1,2.415003,-0.000039,1,0.602514,0.600977,0.1074,0,PSF-00508_20230829042637,PFA-00566,PSA-00583,PSF-00508,RHS-0736,2.0.0,2022-09-01T17:42:39.413Z
5,4:28:35 AM,8/29/23,Night sampling,CH,LCOR-201,,,,0.834507,0.055752,2.920283,0.054707,0.397431,1.60031,1.589115,2.32272,0.722409,15.671359,15.781762,22.905941,0.441786,PSF-00508_20230829042835,73.766113,445.736633,0,0,0,0.5,0.8,-0.001133,63.79,63.35,21.08,19.83,101.4,156.5,156.4,0.1,0,4.09,29,-54,336,,,,,,,,0.47875,45167,44.588642,-123.19931,73.099998,9,1,0.18130787,45167,0.01,-0.004,-0.002,-0.002,0.015,0.145,0.11,0,150,-9999,-9999,1,rectangular,6000,5,-9999,-9999,55537,55537,55537,0,-9999,0,0,0,0,2.499393,2.516188,1.655561,0.935926,0.319014,-0.014239,0.167648,0.107397,73.766113,0.000231,2.400422,-0.000034,1,2.415003,-0.000039,1,0.602514,0.600977,0.1074,0,PSF-00508_20230829042835,PFA-00566,PSA-00583,PSF-00508,RHS-0736,2.0.0,2022-09-01T17:42:39.413Z
6,4:28:59 AM,8/29/23,Night sampling,CH,LCOR-201,,,,0.83457,0.043236,2.921237,0.042605,0.330935,1.599846,1.590531,2.372059,0.772213,15.685396,15.777258,23.392622,0.441786,PSF-00508_20230829042859,79.54216,480.819946,0,0,0,0.5,0.8,0.275048,63.96,63.59,21.04,20.17,101.4,156.6,156.5,0.1,1,4.087,52,-10,350,,,,,,,,0.479039352,45167,44.588902,-123.199257,68.300003,12,0.82,0.18130787,45167,0.01,-0.002,-0.001,-0.003,0.21,0.048,0.576,0,150,-9999,-9999,1,rectangular,6000,5,-9999,-9999,55537,55537,55537,0,-9999,0,0,0,0,2.499731,2.516429,1.656545,0.935997,0.319618,-0.009872,0.170799,0.108109,79.623344,0.000232,2.400422,-0.000034,1,2.415003,-0.000039,1,0.602514,0.600977,0.1074,0,PSF-00508_20230829042859,PFA-00566,PSA-00583,PSF-00508,RHS-0736,2.0.0,2022-09-01T17:42:39.413Z
7,4:31:29 AM,8/29/23,Night sampling,CH,LCOR-282,,,,0.829762,0.06818,2.917919,0.066623,0.444867,1.57144,1.558883,2.235767,0.664327,15.374696,15.498542,22.050556,0.441786,PSF-00508_20230829043129,78.454613,460.851776,0,0,0,0.5,0.8,0.062315,63.78,63.27,20.79,19.22,101.39,156.2,153.1,2,0,4.085,62,-45,326,,,,,,,,0.480775463,45167,44.588894,-123.199287,68.199997,12,0.82,0.188402778,45167,-0.03,-0.002,-0.008,-0.018,0.151,0.009,0.283,0,150,-9999,-9999,1,rectangular,6000,5,-9999,-9999,55537,55537,55537,0,-9999,0,0,0,0,2.499372,2.516306,1.653133,0.92767,0.322802,-0.017768,0.18942,0.107562,78.454613,0.00023,2.400422,-0.000034,1,2.415003,-0.000039,1,0.602514,0.600977,0.1074,0,PSF-00508_20230829043129,PFA-00566,PSA-00583,PSF-00508,RHS-0736,2.0.0,2022-09-01T17:42:39.413Z
8,4:31:44 AM,8/29/23,Night sampling,CH,LCOR-282,,,,0.824272,0.078832,2.919492,0.076759,0.462262,1.580603,1.567571,2.179944,0.599341,15.45901,15.587528,21.498091,0.441786,PSF-00508_20230829043144,78.760384,448.195709,0,0,0,0.5,0.8,0.0282,64.25,63.72,20.77,18.82,101.4,156.4,156,0.3,0,4.083,51,14,7,,,,,,,,0.480902778,45167,44.588799,-123.199226,67.400002,13,0.82,0.188402778,45167,-0.03,-0.011,-0.019,-0.054,-0.2,-0.062,0.534,0,150,-9999,-9999,1,rectangular,6000,5,-9999,-9999,55537,55537,55537,0,-9999,0,0,0,0,2.499976,2.516949,1.654747,0.93494,0.323097,-0.022031,0.191161,0.107474,78.739288,0.000237,2.400422,-0.000034,1,2.415003,-0.000039,1,0.602514,0.600977,0.1074,0,PSF-00508_20230829043144,PFA-00566,PSA-00583,PSF-00508,RHS-0736,2.0.0,2022-09-01T17:42:39.413Z
9,4:33:35 AM,8/29/23,Night sampling,CH,LCOR-346,,,,0.826915,0.048309,2.919297,0.047523,0.307108,1.585161,1.576503,2.228102,0.642941,15.547709,15.633101,21.973885,0.441786,PSF-00508_20230829043335,69.584015,402.021301,0,0,0,0.5,0.8,0.002726,65.25,64.89,20.56,19.17,101.4,156.4,156.6,-0.1,0,4.082,61,-4,17,,,,,,,,0.482233796,45167,44.588799,-123.199234,66.900002,13,0.82,0.188402778,45167,-0.03,-0.001,-0.009,-0.017,-0.133,-0.132,0.146,0,150,-9999,-9999,1,rectangular,6000,5,-9999,-9999,55537,55537,55537,0,-9999,0,0,0,0,2.501616,2.518379,1.654547,0.936431,0.325757,-0.015798,0.204683,0.107407,69.85009,0.000229,2.400422,-0.000034,1,2.415003,-0.000039,1,0.602514,0.600977,0.1074,0,PSF-00508_20230829043335,PFA-00566,PSA-00583,PSF-00508,RHS-0736,2.0.0,2022-09-01T17:42:39.413Z
10,4:33:48 AM,8/29/23,Night sampling,CH,LCOR-346,,,,0.831903,0.020241,2.920029,0.020101,0.122251,1.583249,1.579804,2.188464,0.605215,15.579886,15.613859,21.582432,0.441786,PSF-00508_20230829043348,78.203201,465.227356,0,0,0,0.5,0.8,0.106446,65.26,65.12,20.54,18.88,101.4,156.5,156.3,0.1,0,4.077,33,-40,325,,,,,,,,0.482372685,45167,44.58889,-123.199234,64.900002,14,0.8,0.188402778,45167,-0.03,-0.002,-0.011,-0.031,0.039,-0.158,0.099,0,150,-9999,-9999,1,rectangular,6000,5,-9999,-9999,55537,55537,55537,0,-9999,0,0,0,0,2.501926,2.5184,1.6553,0.935701,0.32605,-0.018757,0.206088,0.107675,78.203201,0.000231,2.400422,-0.000034,1,2.415003,-0.000039,1,0.602514,0.600977,0.1074,0,PSF-00508_20230829043348,PFA-00566,PSA-00583,PSF-00508,RHS-0736,2.0.0,2022-09-01T17:42:39.413Z
11,4:36:09 AM,8/29/23,Night sampling,CH,LCOR-062,,,,0.824585,0.035969,2.92122,0.035531,0.233192,1.554335,1.547769,2.207449,0.653113,15.264821,15.329581,21.770893,0.441786,PSF-00508_20230829043609,70.048569,399.330139,0,0,0,0.5,0.8,0.002992,64.9,64.63,20.33,19.02,101.39,156.6,156.5,0.1,0,4.045,31,-7,357,,,,,,,,0.483993056,45167,44.588882,-123.199219,65.199997,14,0.8,0.188402778,45167,-0.03,0,-0.003,-0.012,-0.183,0.094,0.063,0,150,-9999,-9999,1,rectangular,6000,5,-9999,-9999,55537,55537,55537,0,-9999,0,0,0,0,2.501319,2.517962,1.656528,0.936145,0.328809,-0.014825,0.222315,0.107408,70.048569,0.00023,2.400422,-0.000034,1,2.415003,-0.000039,1,0.602514,0.600977,0.1074,0,PSF-00508_20230829043609,PFA-00566,PSA-00583,PSF-00508,RHS-0736,2.0.0,2022-09-01T17:42:39.413Z
12,4:36:35 AM,8/29/23,Night sampling,CH,LCOR-062,,,,0.776667,0.013358,2.920554,0.013297,0.09503,1.558118,1.55544,2.269085,0.710968,15.340443,15.366847,22.378725,0.441786,PSF-00508_20230829043635,95.675827,428.399567,0,0,0,0.5,0.8,0.039867,65.25,65.14,20.28,19.46,101.39,156.6,156.4,0.1,0,4.074,39,11,347,,,,,,,,0.484305556,45167,44.588776,-123.199211,64.300003,16,0.76,0.188402778,45167,-0.03,0.001,0,0,-0.073,-0.039,0.222,0,150,-9999,-9999,1,rectangular,6000,5,-9999,-9999,55537,55537,55537,0,-9999,0,0,0,0,2.502021,2.518453,1.65584,0.935801,0.329435,-0.009334,0.225195,0.10751,95.899704,0.000232,2.400422,-0.000034,1,2.415003,-0.000039,1,0.602514,0.600977,0.1074,0,PSF-00508_20230829043635,PFA-00566,PSA-00583,PSF-00508,RHS-0736,2.0.0,2022-09-01T17:42:39.413Z
13,4:38:58 AM,8/29/23,Night sampling,CH,LCOR-310,,,,0.820124,0.077052,2.919942,0.075071,0.463961,1.571738,1.558663,2.186752,0.615013,15.372722,15.501678,21.567408,0.441786,PSF-00508_20230829043858,76.917526,427.615295,0,0,0,0.5,0.8,-0.00125,66.57,66.02,20.1,18.87,101.39,156.5,156.6,-0.1,0,4.072,57,-25,332,,,,,,,,0.485972222,45167,44.588772,-123.199219,64.300003,16,0.76,0.188402778,45167,-0.03,-0.003,-0.003,-0.014,0.192,0.201,0.431,0,150,-9999,-9999,1,rectangular,6000,5,-9999,-9999,55537,55537,55537,0,-9999,0,0,0,0,2.503258,2.52032,1.65521,0.936377,0.33188,-0.013882,0.241362,0.107397,76.917526,0.000233,2.400422,-0.000034,1,2.415003,-0.000039,1,0.602514,0.600977,0.1074,0,PSF-00508_20230829043858,PFA-00566,PSA-00583,PSF-00508,RHS-0736,2.0.0,2022-09-01T17:42:39.413Z
14,4:39:18 AM,8/29/23,Night sampling,CH,LCOR-310,,,,0.813566,0.074002,2.919013,0.072172,0.494869,1.575423,1.561467,2.25749,0.682068,15.40064,15.538282,22.265469,0.441786,PSF-00508_20230829043918,79.77533,427.901031,0,0,0,0.5,0.8,0.011471,66.84,66.25,20.07,19.38,101.39,156.4,156.3,0,0,4.07,54,-40,313,,,,,,,,0.48619213,45167,44.588715,-123.199173,64.800003,14,0.8,0.188402778,45167,-0.03,0.003,0.004,0.006,0.079,0.093,-0.644,0,150,-9999,-9999,1,rectangular,6000,5,-9999,-9999,55537,55537,55537,0,-9999,0,0,0,0,2.503578,2.520698,1.654255,0.93569,0.332249,-0.007852,0.243498,0.10743,79.77533,0.000234,2.400422,-0.000034,1,2.415003,-0.000039,1,0.602514,0.600977,0.1074,0,PSF-00508_20230829043918,PFA-00566,PSA-00583,PSF-00508,RHS-0736,2.0.0,2022-09-01T17:42:39.413Z
15,4:42:24 AM,8/29/23,Night sampling,CH,LCOR-296,,,,0.826449,0.050835,2.919893,0.049965,0.314341,1.581025,1.572167,2.206932,0.625908,15.507284,15.594649,21.768372,0.441786,PSF-00508_20230829044224,75.930473,437.510498,0,0,0,0.5,0.8,-0.00071,67.85,67.47,19.89,19.01,101.38,156.5,156.6,0,0,4.067,41,-35,330,,,,,,,,0.488356481,45167,44.588718,-123.199173,65.099998,15,0.77,0.195972222,45167,-0.05,0,0.009,0.001,0.266,0.166,0.084,0,150,-9999,-9999,1,rectangular,6000,5,-9999,-9999,55537,55537,55537,0,-9999,0,0,0,0,2.505266,2.522158,1.655159,0.936252,0.334714,-0.009837,0.264679,0.107398,75.930473,0.000237,2.400422,-0.000034,1,2.415003,-0.000039,1,0.602514,0.600977,0.1074,0,PSF-00508_20230829044224,PFA-00566,PSA-00583,PSF-00508,RHS-0736,2.0.0,2022-09-01T17:42:39.413Z
16,4:42:45 AM,8/29/23,Night sampling,CH,LCOR-296,,,,0.811797,0.058651,2.920382,0.057496,0.329744,1.582644,1.573356,2.153395,0.570751,15.518247,15.609855,21.239254,0.441786,PSF-00508_20230829044245,80.840706,429.539337,0,0,0,0.5,0.8,0.000382,67.97,67.57,19.88,18.62,101.39,156.5,156.4,0.1,0,4.064,61,30,85,,,,,,,,0.488587963,45167,44.58881,-123.19915,63,16,0.77,0.195972222,45167,-0.05,0,-0.003,-0.009,-0.192,0.219,0.301,0,150,-9999,-9999,1,rectangular,6000,5,-9999,-9999,55537,55537,55537,0,-9999,0,0,0,0,2.505402,2.522321,1.655664,0.935925,0.334866,-0.014095,0.266907,0.107401,80.840706,0.000232,2.400422,-0.000034,1,2.415003,-0.000039,1,0.602514,0.600977,0.1074,0,PSF-00508_20230829044245,PFA-00566,PSA-00583,PSF-00508,RHS-0736,2.0.0,2022-09-01T17:42:39.413Z
17,4:45:04 AM,8/29/23,Night sampling,CH,LCOR-250,,,,0.831552,0.076938,2.920521,0.074963,0.459791,1.570612,1.557661,2.180968,0.610356,15.363627,15.491366,21.511475,0.441786,PSF-00508_20230829044504,75.074677,445.684784,0,0,0,0.5,0.8,-0.000023,67.95,67.39,19.76,18.82,101.39,156.6,156.6,0,0,4.063,54,-44,297,,,,,,,,0.490196759,45167,44.588802,-123.199158,63.099998,16,0.77,0.195972222,45167,-0.05,0.002,0.004,0.004,-0.072,0.075,-0.093,0,150,-9999,-9999,1,rectangular,6000,5,-9999,-9999,55537,55537,55537,0,-9999,0,0,0,0,2.505193,2.522329,1.655807,0.936265,0.336475,-0.010476,0.281631,0.1074,75.074677,0.00023,2.400422,-0.000034,1,2.415003,-0.000039,1,0.602514,0.600977,0.1074,0,PSF-00508_20230829044504,PFA-00566,PSA-00583,PSF-00508,RHS-0736,2.0.0,2022-09-01T17:42:39.413Z
18,4:45:19 AM,8/29/23,Night sampling,CH,LCOR-250,,,,0.831309,0.100876,2.919729,0.097507,0.515299,1.589221,1.574701,2.115214,0.525993,15.532196,15.67542,20.8636,0.441786,PSF-00508_20230829044519,72.206497,428.039795,0,0,0,0.5,0.8,0.000806,68.83,68.2,19.74,18.33,101.38,156.5,156.2,0.2,0,4.06,52,-65,283,,,,,,,,0.490335648,45167,44.588898,-123.19915,64.900002,16,0.77,0.195972222,45167,-0.05,-0.002,-0.028,-0.063,0.046,-0.024,0.126,0,150,-9999,-9999,1,rectangular,6000,5,-9999,-9999,55537,55537,55537,0,-9999,0,0,0,0,2.506284,2.523534,1.654991,0.93532,0.336702,-0.015731,0.283327,0.107402,72.06881,0.000228,2.400422,-0.000034,1,2.415003,-0.000039,1,0.602514,0.600977,0.1074,0,PSF-00508_20230829044519,PFA-00566,PSA-00583,PSF-00508,RHS-0736,2.0.0,2022-09-01T17:42:39.413Z
19,4:47:48 AM,8/29/23,Night sampling,CH,LCOR-279,,,,0.830155,0.036622,2.919928,0.036169,0.238857,1.551467,1.544734,2.208636,0.657168,15.235382,15.301785,21.783297,0.441786,PSF-00508_20230829044748,80.631851,474.738464,0,0,0,0.5,0.8,0.006876,67.61,67.31,19.64,19.03,101.39,156.5,156.8,-0.2,0,4.06,40,-11,352,,,,,,,,0.492106481,45167,44.588894,-123.199165,65,16,0.77,0.195972222,45167,-0.05,0.002,0.001,-0.002,0.062,0.185,0.237,0,150,-9999,-9999,1,rectangular,6000,5,-9999,-9999,55537,55537,55537,0,-9999,0,0,0,0,2.505116,2.521883,1.655195,0.936839,0.338038,-0.006912,0.299454,0.107418,80.631851,0.00023,2.400422,-0.000034,1,2.415003,-0.000039,1,0.602514,0.600977,0.1074,0,PSF-00508_20230829044748,PFA-00566,PSA-00583,PSF-00508,RHS-0736,2.0.0,2022-09-01T17:42:39.413Z
20,4:48:10 AM,8/29/23,Night sampling,CH,LCOR-279,,,,0.843445,0.088824,2.920115,0.086202,0.494368,1.555128,1.541197,2.126015,0.570886,15.201468,15.338878,20.969769,0.441786,PSF-00508_20230829044810,72.993996,466.250183,0,0,0,0.5,0.8,0.000818,67.84,67.23,19.62,18.42,101.38,156.5,155,1,0,4.055,72,34,63,,,,,,,,0.492349537,45167,44.588886,-123.199112,65,17,0.74,0.195972222,45167,-0.05,-0.001,-0.006,-0.022,0.367,0.088,0.158,0,150,-9999,-9999,1,rectangular,6000,5,-9999,-9999,55537,55537,55537,0,-9999,0,0,0,0,2.505015,2.522211,1.655388,0.932351,0.338286,-0.013508,0.301598,0.107402,72.993996,0.00023,2.400422,-0.000034,1,2.415003,-0.000039,1,0.602514,0.600977,0.1074,0,PSF-00508_20230829044810,PFA-00566,PSA-00583,PSF-00508,RHS-0736,2.0.0,2022-09-01T17:42:39.413Z
21,4:50:43 AM,8/29/23,Night sampling,CH,LCOR-342,,,,0.762655,0.015912,2.919152,0.015826,0.092992,1.545779,1.543156,2.13069,0.584912,15.220864,15.246734,21.015991,0.441786,PSF-00508_20230829045043,89.908363,378.809448,0,0,0,0.5,0.8,0.003401,67.76,67.65,19.54,18.45,101.38,156.4,156.7,-0.2,0,4.054,52,-81,301,,,,,,,,0.494108796,45167,44.588898,-123.199127,65,16,0.76,0.195972222,45167,-0.05,0,-0.002,-0.019,-0.035,0.204,0.116,0,150,-9999,-9999,1,rectangular,6000,5,-9999,-9999,55537,55537,55537,0,-9999,0,0,0,0,2.505588,2.522119,1.654398,0.936628,0.339344,-0.01224,0.317275,0.10741,89.908363,0.000231,2.400422,-0.000034,1,2.415003,-0.000039,1,0.602514,0.600977,0.1074,0,PSF-00508_20230829045043,PFA-00566,PSA-00583,PSF-00508,RHS-0736,2.0.0,2022-09-01T17:42:39.413Z
22,4:51:00 AM,8/29/23,Night sampling,CH,LCOR-342,,,,0.531874,0.005192,2.919933,0.005182,0.030659,1.558734,1.55787,2.147533,0.588799,15.366569,15.375091,21.182901,0.441786,PSF-00508_20230829045100,105.554581,225.483292,0,0,0,0.5,0.8,0.018285,68.38,68.35,19.53,18.58,101.38,156.5,156.7,-0.2,0,4.054,41,-54,298,,,,,,,,0.49431713,45167,44.588898,-123.199127,64.599998,17,0.74,0.195972222,45167,-0.05,0.001,0.001,-0.004,-0.009,0.754,0.93,0,150,-9999,-9999,1,rectangular,6000,5,-9999,-9999,55537,55537,55537,0,-9999,0,0,0,0,2.506533,2.522976,1.655201,0.936731,0.33952,-0.010694,0.318876,0.107474,105.397583,0.000232,2.400422,-0.000034,1,2.415003,-0.000039,1,0.602514,0.600977,0.1074,0,PSF-00508_20230829045100,PFA-00566,PSA-00583,PSF-00508,RHS-0736,2.0.0,2022-09-01T17:42:39.413Z
23,4:51:22 AM,8/29/23,Night sampling,CH,LCOR-342,,,,0.808542,0.044204,2.919314,0.043544,0.277359,1.563711,1.555891,2.197484,0.633773,15.347042,15.424177,21.675606,0.441786,PSF-00508_20230829045122,85.932251,448.830841,0,0,0,0.5,0.8,0.087733,68.65,68.31,19.52,18.94,101.38,156.4,156.4,0,0,4.053,46,-65,318,,,,,,,,0.494583333,45167,44.588905,-123.19912,65.199997,16,0.76,0.195972222,45167,-0.05,0.003,-0.001,-0.009,0.001,-0.016,-0.19,0,150,-9999,-9999,1,rectangular,6000,5,-9999,-9999,55537,55537,55537,0,-9999,0,0,0,0,2.506482,2.523343,1.654564,0.935907,0.339672,-0.006461,0.321016,0.107633,85.932251,0.000237,2.400422,-0.000034,1,2.415003,-0.000039,1,0.602514,0.600977,0.1074,0,PSF-00508_20230829045122,PFA-00566,PSA-00583,PSF-00508,RHS-0736,2.0.0,2022-09-01T17:42:39.413Z
24,4:51:48 AM,8/29/23,Night sampling,CH,LCOR-342,,,,0.538413,-0.002136,2.921228,-0.002138,-0.012964,1.569694,1.570059,2.173173,0.60348,15.48595,15.482351,21.434649,0.441786,PSF-00508_20230829045148,135.981918,294.596313,0,0,0,0.5,0.8,0.008666,68.97,68.99,19.51,18.77,101.39,156.6,156.5,0.1,0,4.053,62,-8,278,,,,,,,,0.494872685,45167,44.588905,-123.19912,65.199997,17,0.74,0.195972222,45167,-0.05,-0.001,-0.002,-9999,-0.026,0.412,-9999,0,150,-9999,-9999,1,rectangular,6000,5,-9999,-9999,55537,55537,55537,0,-9999,0,0,0,0,2.507407,2.523793,1.656535,0.936171,0.339874,-0.008284,0.323619,0.107435,136.165741,0.000236,2.400422,-0.000034,1,2.415003,-0.000039,1,0.602514,0.600977,0.1074,0,PSF-00508_20230829045148,PFA-00566,PSA-00583,PSF-00508,RHS-0736,2.0.0,2022-09-01T17:42:39.413Z
25,4:52:11 AM,8/29/23,Night sampling,CH,LCOR-342,,,,0.767261,0.013676,2.91995,0.013612,0.083042,1.583919,1.581579,2.190911,0.606992,15.599662,15.62274,21.609711,0.441786,PSF-00508_20230829045211,87.451813,375.750305,0,0,0,0.5,0.8,0.019235,69.63,69.53,19.5,18.9,101.39,156.5,156.5,0,0,4.05,71,-16,309,,,,,,,,0.495150463,45167,44.58884,-123.199104,66.199997,17,0.74,0.195972222,45167,-0.05,-0.004,-0.002,-0.006,0.458,0.094,0.283,0,150,-9999,-9999,1,rectangular,6000,5,-9999,-9999,55537,55537,55537,0,-9999,0,0,0,0,2.508128,2.52469,1.655219,0.936221,0.339967,-0.006753,0.326008,0.107454,87.391731,0.00023,2.400422,-0.000034,1,2.415003,-0.000039,1,0.602514,0.600977,0.1074,0,PSF-00508_20230829045211,PFA-00566,PSA-00583,PSF-00508,RHS-0736,2.0.0,2022-09-01T17:42:39.413Z
26,4:54:34 AM,8/29/23,Night sampling,CH,LCOR-076,,,,0.833519,0.06404,2.921503,0.062667,0.352456,1.581677,1.571758,2.141449,0.559772,15.502252,15.600084,21.121122,0.441786,PSF-00508_20230829045434,68.096634,409.03653,0,0,0,0.5,0.8,0.000531,69.56,69.12,19.49,18.53,101.39,156.7,156.8,0,0,4.049,35,-1,317,,,,,,,,0.496805556,45167,44.58884,-123.199104,66.099998,17,0.74,0.204386574,45167,-0.12,-0.001,0.001,-0.008,0.174,0.131,-0.012,0,150,-9999,-9999,1,rectangular,6000,5,-9999,-9999,55537,55537,55537,0,-9999,0,0,0,0,2.507582,2.524686,1.656819,0.936743,0.340044,-0.010765,0.340634,0.107401,68.096634,0.000236,2.400422,-0.000034,1,2.415003,-0.000039,1,0.602514,0.600977,0.1074,0,PSF-00508_20230829045434,PFA-00566,PSA-00583,PSF-00508,RHS-0736,2.0.0,2022-09-01T17:42:39.413Z
27,4:54:57 AM,8/29/23,Night sampling,CH,LCOR-076,,,,0.842558,0.166855,2.921265,0.157839,0.818501,1.598064,1.57503,2.114167,0.516103,15.535718,15.762918,20.85363,0.441786,PSF-00508_20230829045457,71.90609,456.714386,0,0,0,0.5,0.8,0.034847,70.26,69.25,19.5,18.33,101.38,156.6,154.8,1.2,0,4.044,65,-26,297,,,,,,,,0.497071759,45167,44.588665,-123.199104,69.800003,18,0.72,0.204386574,45167,-0.12,-0.011,-0.028,-0.074,0.044,0.059,0.109,0,150,-9999,-9999,1,rectangular,6000,5,-9999,-9999,55537,55537,55537,0,-9999,0,0,0,0,2.507759,2.525655,1.656574,0.931812,0.340006,-0.013072,0.342925,0.107489,71.90609,0.000231,2.400422,-0.000034,1,2.415003,-0.000039,1,0.602514,0.600977,0.1074,0,PSF-00508_20230829045457,PFA-00566,PSA-00583,PSF-00508,RHS-0736,2.0.0,2022-09-01T17:42:39.413Z
28,4:57:27 AM,8/29/23,Night sampling,CH,LCOR-511,,,,0.822882,0.047562,2.920005,0.0468,0.269912,1.572842,1.565235,2.146888,0.574047,15.437349,15.512366,21.173983,0.441786,PSF-00508_20230829045727,77.149269,435.581451,0,0,0,0.5,0.8,-0.000023,69.25,68.91,19.47,18.57,101.39,156.5,156.7,-0.1,0,4.044,45,-1,325,,,,,,,,0.498796296,45167,44.588676,-123.199104,69.599998,17,0.74,0.204386574,45167,-0.12,-0.002,-0.007,-0.008,-0.16,0.071,0.213,0,150,-9999,-9999,1,rectangular,6000,5,-9999,-9999,55537,55537,55537,0,-9999,0,0,0,0,2.50731,2.524271,1.655275,0.936618,0.340303,-0.0101,0.357598,0.1074,77.149269,0.000237,2.400422,-0.000034,1,2.415003,-0.000039,1,0.602514,0.600977,0.1074,0,PSF-00508_20230829045727,PFA-00566,PSA-00583,PSF-00508,RHS-0736,2.0.0,2022-09-01T17:42:39.413Z
29,4:57:51 AM,8/29/23,Night sampling,CH,LCOR-511,,,,0.837768,0.086971,2.918257,0.084454,0.44484,1.598065,1.585515,2.122327,0.524262,15.637284,15.761057,20.931637,0.441786,PSF-00508_20230829045751,75.271729,463.974945,0,0,0,0.5,0.8,0.002205,70.42,69.87,19.46,18.39,101.39,156.3,155.3,0.6,0,4.04,64,15,27,,,,,,,,0.4990625,45167,44.588661,-123.19912,69,16,0.75,0.204386574,45167,-0.12,-0.003,-0.007,-0.01,-0.054,-0.176,0.079,0,150,-9999,-9999,1,rectangular,6000,5,-9999,-9999,55537,55537,55537,0,-9999,0,0,0,0,2.508595,2.525878,1.65348,0.933114,0.340497,-0.011984,0.359898,0.107406,75.271729,0.00023,2.400422,-0.000034,1,2.415003,-0.000039,1,0.602514,0.600977,0.1074,0,PSF-00508_20230829045751,PFA-00566,PSA-00583,PSF-00508,RHS-0736,2.0.0,2022-09-01T17:42:39.413Z
30,5:00:32 AM,8/29/23,Night sampling,CH,LCOR-041,,,,0.840836,0.035904,2.919445,0.035468,0.206737,1.602296,1.59647,2.182257,0.579961,15.745714,15.803181,21.523235,0.441786,PSF-00508_20230829050032,73.262215,460.294617,0,0,0,0.5,0.8,0.126037,70.86,70.6,19.4,18.83,101.39,156.4,156.7,-0.2,0,4.04,44,-17,345,,,,,,,,0.500925926,45167,44.588642,-123.19912,68.900002,16,0.73,0.204386574,45167,-0.12,0.001,0,0.003,-0.11,-0.09,-0.365,0,150,-9999,-9999,1,rectangular,6000,5,-9999,-9999,55537,55537,55537,0,-9999,0,0,0,0,2.509594,2.526491,1.654698,0.93674,0.341283,-0.006375,0.375514,0.107723,73.262215,0.000232,2.400422,-0.000034,1,2.415003,-0.000039,1,0.602514,0.600977,0.1074,0,PSF-00508_20230829050032,PFA-00566,PSA-00583,PSF-00508,RHS-0736,2.0.0,2022-09-01T17:42:39.413Z
31,5:00:52 AM,8/29/23,Night sampling,CH,LCOR-041,,,,0.825475,0.201358,2.92161,0.188375,0.81618,1.635129,1.612173,2.066413,0.431284,15.900476,16.126886,20.380537,0.441786,PSF-00508_20230829050052,73.05336,418.584106,0,0,0,0.5,0.8,0.024125,72.34,71.32,19.4,17.96,101.39,156.7,154.3,1.5,0,4.036,28,-25,308,,,,,,,,0.501168981,45167,44.588692,-123.199066,66.800003,17,0.73,0.204386574,45167,-0.12,-0.014,-0.023,-0.07,0.278,0.384,0.964,0,150,-9999,-9999,1,rectangular,6000,5,-9999,-9999,55537,55537,55537,0,-9999,0,0,0,0,2.510563,2.528513,1.65693,0.93058,0.341367,-0.015985,0.37729,0.107463,73.500397,0.000231,2.400422,-0.000034,1,2.415003,-0.000039,1,0.602514,0.600977,0.1074,0,PSF-00508_20230829050052,PFA-00566,PSA-00583,PSF-00508,RHS-0736,2.0.0,2022-09-01T17:42:39.413Z
32,5:03:10 AM,8/29/23,Night sampling,CH,LCOR-286,,,,0.841092,0.086165,2.918046,0.083694,0.419983,1.60818,1.59633,2.107685,0.499505,15.743054,15.859919,20.786051,0.441786,PSF-00508_20230829050310,81.450462,512.562622,0,0,0,0.5,0.8,0.001235,71.26,70.74,19.37,18.28,101.4,156.2,156,0.2,0,4.034,24,22,10,,,,,,,,0.502766204,45167,44.588703,-123.199059,67,17,0.73,0.204386574,45167,-0.12,0.001,-0.001,-0.009,-0.036,0.12,-0.241,0,150,-9999,-9999,1,rectangular,6000,5,-9999,-9999,55537,55537,55537,0,-9999,0,0,0,0,2.509784,2.52705,1.653263,0.934845,0.341725,-0.0122,0.390166,0.107403,81.450462,0.000237,2.400422,-0.000034,1,2.415003,-0.000039,1,0.602514,0.600977,0.1074,0,PSF-00508_20230829050310,PFA-00566,PSA-00583,PSF-00508,RHS-0736,2.0.0,2022-09-01T17:42:39.413Z
33,5:03:28 AM,8/29/23,Night sampling,CH,LCOR-286,,,,0.834738,0.042619,2.920773,0.042006,0.206313,1.610442,1.604633,2.099329,0.488887,15.825644,15.882928,20.704561,0.441786,PSF-00508_20230829050328,84.948059,514.022095,0,0,0,0.5,0.8,-0.000023,71.39,71.13,19.37,18.21,101.39,156.6,155.3,0.8,0,4.033,34,-8,310,,,,,,,,0.502986111,45167,44.588657,-123.199074,67.699997,17,0.77,0.204386574,45167,-0.12,0,0.003,-0.002,0.07,0.212,0.276,0,150,-9999,-9999,1,rectangular,6000,5,-9999,-9999,55537,55537,55537,0,-9999,0,0,0,0,2.51031,2.52722,1.656066,0.933059,0.341797,-0.012843,0.391802,0.1074,84.948059,0.000232,2.400422,-0.000034,1,2.415003,-0.000039,1,0.602514,0.600977,0.1074,0,PSF-00508_20230829050328,PFA-00566,PSA-00583,PSF-00508,RHS-0736,2.0.0,2022-09-01T17:42:39.413Z
34,5:05:44 AM,8/29/23,Night sampling,CH,LCOR-289,,,,0.805131,0.00169,2.917819,0.001689,0.009455,1.588234,1.587967,2.145219,0.556986,15.662469,15.665101,21.158773,0.441786,PSF-00508_20230829050544,82.323792,422.456512,0,0,0,0.5,0.8,0.000781,70.33,70.32,19.38,18.56,101.39,156.2,156.6,-0.3,0,4.032,61,-15,335,,,,,,,,0.504560185,45167,44.588661,-123.199059,67.699997,18,0.73,0.212164352,45167,-0.2,-0.002,0.003,0.004,-0.276,-0.103,-0.367,0,150,-9999,-9999,1,rectangular,6000,5,-9999,-9999,55537,55537,55537,0,-9999,0,0,0,0,2.509219,2.525878,1.653031,0.93646,0.341573,-0.009191,0.404631,0.107402,82.323792,0.000235,2.400422,-0.000034,1,2.415003,-0.000039,1,0.602514,0.600977,0.1074,0,PSF-00508_20230829050544,PFA-00566,PSA-00583,PSF-00508,RHS-0736,2.0.0,2022-09-01T17:42:39.413Z
35,5:06:05 AM,8/29/23,Night sampling,CH,LCOR-289,,,,0.836544,-0.007175,2.921373,-0.007193,-0.041495,1.585243,1.58641,2.159374,0.574131,15.646577,15.635058,21.297646,0.441786,PSF-00508_20230829050605,74.151634,453.648438,0,0,0,0.5,0.8,0.001506,70.19,70.24,19.38,18.66,101.39,156.7,156.9,-0.2,0,4.029,32,-13,334,,,,,,,,0.504791667,45167,44.588783,-123.199051,66.5,18,0.73,0.212164352,45167,-0.2,0,-0.001,-0.003,0.056,0.18,0.337,0,150,-9999,-9999,1,rectangular,6000,5,-9999,-9999,55537,55537,55537,0,-9999,0,0,0,0,2.50912,2.525691,1.656685,0.937215,0.341559,-0.008031,0.406443,0.107404,74.151634,0.000231,2.400422,-0.000034,1,2.415003,-0.000039,1,0.602514,0.600977,0.1074,0,PSF-00508_20230829050605,PFA-00566,PSA-00583,PSF-00508,RHS-0736,2.0.0,2022-09-01T17:42:39.413Z
36,5:08:27 AM,8/29/23,Night sampling,CH,LCOR-161,,,,0.841443,0.040752,2.917467,0.04019,0.21952,1.604869,1.598673,2.148431,0.543561,15.767014,15.828127,21.189035,0.441786,PSF-00508_20230829050827,72.64566,458.168854,0,0,0,0.5,0.8,0.000256,71.25,70.98,19.34,18.58,101.39,156.2,155.8,0.2,0,4.028,51,-20,269,,,,,,,,0.506435185,45167,44.588791,-123.199059,66.5,17,0.74,0.212164352,45167,-0.2,0,0.002,-0.004,-0.068,0.131,0.216,0,150,-9999,-9999,1,rectangular,6000,5,-9999,-9999,55537,55537,55537,0,-9999,0,0,0,0,2.510114,2.527149,1.65267,0.93438,0.342151,-0.00845,0.419232,0.107401,72.64566,0.000231,2.400422,-0.000034,1,2.415003,-0.000039,1,0.602514,0.600977,0.1074,0,PSF-00508_20230829050827,PFA-00566,PSA-00583,PSF-00508,RHS-0736,2.0.0,2022-09-01T17:42:39.413Z
37,5:08:50 AM,8/29/23,Night sampling,CH,LCOR-161,,,,0.843538,0.007754,2.918194,0.007733,0.042295,1.603611,1.602418,2.147887,0.544275,15.804189,15.815956,21.183987,0.441786,PSF-00508_20230829050850,67.200783,429.502502,0,0,0,0.5,0.8,0.052133,71.2,71.15,19.34,18.58,101.39,156.3,156.8,-0.3,0,4.024,51,-22,286,,,,,,,,0.506712963,45167,44.588783,-123.199043,66.699997,15,0.89,0.212164352,45167,-0.2,-0.007,-0.014,-0.013,0.281,0.161,-0.041,0,150,-9999,-9999,1,rectangular,6000,5,-9999,-9999,55537,55537,55537,0,-9999,0,0,0,0,2.510347,2.527083,1.653414,0.936782,0.342172,-0.008477,0.42137,0.107533,67.200783,0.000226,2.400422,-0.000034,1,2.415003,-0.000039,1,0.602514,0.600977,0.1074,0,PSF-00508_20230829050850,PFA-00566,PSA-00583,PSF-00508,RHS-0736,2.0.0,2022-09-01T17:42:39.413Z
38,5:10:32 AM,8/29/23,Night sampling,CH,LCOR-233,,,,0.822041,0.070288,2.919405,0.068635,0.33504,1.599671,1.590227,2.085642,0.485971,15.683139,15.776275,20.569016,0.441786,PSF-00508_20230829051032,77.241898,434.04364,0,0,0,0.5,0.8,0.001207,70.96,70.54,19.35,18.11,101.4,156.4,156.4,0,0,4.023,55,-17,309,,,,,,,,0.507893519,45167,44.588795,-123.199059,67,16,0.75,0.212164352,45167,-0.2,-0.003,-0.009,-0.026,-0.066,-0.131,0.146,0,150,-9999,-9999,1,rectangular,6000,5,-9999,-9999,55537,55537,55537,0,-9999,0,0,0,0,2.509521,2.526741,1.654658,0.935954,0.341947,-0.013876,0.43014,0.107403,77.241898,0.000232,2.400422,-0.000034,1,2.415003,-0.000039,1,0.602514,0.600977,0.1074,0,PSF-00508_20230829051032,PFA-00566,PSA-00583,PSF-00508,RHS-0736,2.0.0,2022-09-01T17:42:39.413Z
39,5:10:54 AM,8/29/23,Night sampling,CH,LCOR-233,,,,0.839691,-0.003199,2.921122,-0.003202,-0.017386,1.606239,1.606728,2.14655,0.540312,15.846655,15.841828,21.170753,0.441786,PSF-00508_20230829051054,71.616051,446.738708,0,0,0,0.5,0.8,0.00207,71.23,71.25,19.36,18.57,101.39,156.6,156.7,-0.1,0,4.019,68,-35,291,,,,,,,,0.508101852,45167,44.588692,-123.198982,64.699997,15,0.82,0.212164352,45167,-0.2,0.002,0.001,-9999,0.099,-0.077,-9999,0,150,-9999,-9999,1,rectangular,6000,5,-9999,-9999,55537,55537,55537,0,-9999,0,0,0,0,2.510478,2.527115,1.656426,0.93671,0.341896,-0.008815,0.432199,0.107405,71.458694,0.00023,2.400422,-0.000034,1,2.415003,-0.000039,1,0.602514,0.600977,0.1074,0,PSF-00508_20230829051054,PFA-00566,PSA-00583,PSF-00508,RHS-0736,2.0.0,2022-09-01T17:42:39.413Z
40,5:13:20 AM,8/29/23,Night sampling,CH,LCOR-218,,,,0.844803,0.025967,2.920983,0.025738,0.125265,1.597023,1.593497,2.081527,0.484504,15.716588,15.751368,20.530008,0.441786,PSF-00508_20230829051320,70.922974,456.986908,0,0,0,0.5,0.8,0.000679,70.78,70.62,19.37,18.08,101.39,156.6,156.5,0,0,4.018,37,-3,317,,,,,,,,0.509826389,45167,44.58868,-123.199005,64.5,14,0.75,0.212164352,45167,-0.2,-0.007,-0.009,-0.021,0.157,0.119,0.21,0,150,-9999,-9999,1,rectangular,6000,5,-9999,-9999,55537,55537,55537,0,-9999,0,0,0,0,2.509633,2.526497,1.656283,0.936205,0.341763,-0.014375,0.445083,0.107402,70.922974,0.000237,2.400422,-0.000034,1,2.415003,-0.000039,1,0.602514,0.600977,0.1074,0,PSF-00508_20230829051320,PFA-00566,PSA-00583,PSF-00508,RHS-0736,2.0.0,2022-09-01T17:42:39.413Z
41,5:13:43 AM,8/29/23,Night sampling,CH,LCOR-218,,,,0.838397,0.059108,2.919722,0.057935,0.300311,1.605662,1.597202,2.121499,0.515837,15.755073,15.838528,20.926828,0.441786,PSF-00508_20230829051343,87.85379,543.640503,0,0,0,0.5,0.8,-0.000163,71.19,70.82,19.36,18.38,101.38,156.5,156.3,0.1,0,4.018,51,-29,290,,,,,,,,0.510104167,45167,44.588696,-123.198967,63.200001,16,0.82,0.212164352,45167,-0.2,-0.007,-0.027,-0.074,0.019,0.045,0.107,0,150,-9999,-9999,1,rectangular,6000,5,-9999,-9999,55537,55537,55537,0,-9999,0,0,0,0,2.509896,2.527064,1.654984,0.935731,0.341859,-0.010932,0.446968,0.1074,87.85379,0.000234,2.400422,-0.000034,1,2.415003,-0.000039,1,0.602514,0.600977,0.1074,0,PSF-00508_20230829051343,PFA-00566,PSA-00583,PSF-00508,RHS-0736,2.0.0,2022-09-01T17:42:39.413Z
42,5:16:04 AM,8/29/23,Night sampling,CH,LCOR-156,,,,0.84071,0.025491,2.91808,0.02527,0.138838,1.585831,1.581914,2.132668,0.546836,15.602225,15.640866,21.034246,0.441786,PSF-00508_20230829051604,76.498749,480.247375,0,0,0,0.5,0.8,0.002492,70.28,70.1,19.37,18.47,101.39,156.3,156.6,-0.2,0,4.015,34,-17,346,,,,,,,,0.511701389,45167,44.588665,-123.198975,62.700001,16,0.74,0.219340278,45167,-0.13,0,0.004,0.003,0.156,0.177,-0.168,0,150,-9999,-9999,1,rectangular,6000,5,-9999,-9999,55537,55537,55537,0,-9999,0,0,0,0,2.508935,2.525718,1.653298,0.936386,0.341743,-0.010095,0.458781,0.107406,76.498749,0.000241,2.400422,-0.000034,1,2.415003,-0.000039,1,0.602514,0.600977,0.1074,0,PSF-00508_20230829051604,PFA-00566,PSA-00583,PSF-00508,RHS-0736,2.0.0,2022-09-01T17:42:39.413Z
43,5:16:20 AM,8/29/23,Night sampling,CH,LCOR-156,,,,0.846612,0.021732,2.91863,0.021572,0.114152,1.586361,1.583141,2.113068,0.526707,15.615452,15.647208,20.842426,0.441786,PSF-00508_20230829051620,73.248627,477.537262,0,0,0,0.5,0.8,-0.000164,70.26,70.12,19.38,18.32,101.38,156.3,156.7,-0.2,0,4.013,53,-56,305,,,,,,,,0.511909722,45167,44.58873,-123.198982,62.700001,16,0.82,0.219340278,45167,-0.13,0,-0.001,0.004,-0.072,0.107,0.231,0,150,-9999,-9999,1,rectangular,6000,5,-9999,-9999,55537,55537,55537,0,-9999,0,0,0,0,2.508952,2.525692,1.653862,0.93651,0.341616,-0.011838,0.460028,0.1074,73.248627,0.000235,2.400422,-0.000034,1,2.415003,-0.000039,1,0.602514,0.600977,0.1074,0,PSF-00508_20230829051620,PFA-00566,PSA-00583,PSF-00508,RHS-0736,2.0.0,2022-09-01T17:42:39.413Z
44,5:18:31 AM,8/29/23,Night sampling,CH,LCOR-077,,,,0.842423,0.11031,2.919381,0.106294,0.51025,1.60393,1.589549,2.081798,0.477869,15.677452,15.819291,20.532429,0.441786,PSF-00508_20230829051831,70.894714,449.904785,0,0,0,0.5,0.8,0.002217,71.09,70.45,19.37,18.08,101.39,156.4,156.1,0.2,0,4.013,61,-64,228,,,,,,,,0.5134375,45167,44.588722,-123.198975,62.5,14,0.96,0.219340278,45167,-0.13,-0.01,-0.024,-0.038,-0.204,0.334,0.173,0,150,-9999,-9999,1,rectangular,6000,5,-9999,-9999,55537,55537,55537,0,-9999,0,0,0,0,2.5094,2.526825,1.654633,0.935239,0.341767,-0.014349,0.471158,0.107406,70.894714,0.000239,2.400422,-0.000034,1,2.415003,-0.000039,1,0.602514,0.600977,0.1074,0,PSF-00508_20230829051831,PFA-00566,PSA-00583,PSF-00508,RHS-0736,2.0.0,2022-09-01T17:42:39.413Z
45,5:18:58 AM,8/29/23,Night sampling,CH,LCOR-077,,,,0.82991,0.066222,2.921249,0.064754,0.349357,1.601195,1.591362,2.138159,0.536964,15.694335,15.791308,21.086952,0.441786,PSF-00508_20230829051858,72.416069,425.750977,0,0,0,0.5,0.8,-0.000989,70.99,70.55,19.36,18.51,101.4,156.6,156.5,0.1,0,4.009,29,5,331,,,,,,,,0.513738426,45167,44.588791,-123.198982,62.299999,16,0.82,0.219340278,45167,-0.13,-0.001,-0.006,-0.005,-0.098,-0.083,0.356,0,150,-9999,-9999,1,rectangular,6000,5,-9999,-9999,55537,55537,55537,0,-9999,0,0,0,0,2.509534,2.526687,1.656558,0.9361,0.341827,-0.009569,0.473322,0.107397,72.416069,0.000234,2.400422,-0.000034,1,2.415003,-0.000039,1,0.602514,0.600977,0.1074,0,PSF-00508_20230829051858,PFA-00566,PSA-00583,PSF-00508,RHS-0736,2.0.0,2022-09-01T17:42:39.413Z
46,5:21:27 AM,8/29/23,Night sampling,CH,LCOR-320,,,,0.814691,0.02029,2.920026,0.02015,0.112602,1.609537,1.606365,2.165581,0.556044,15.843427,15.87471,21.358925,0.441786,PSF-00508_20230829052127,79.950211,431.443329,0,0,0,0.5,0.8,0.001738,71.36,71.22,19.36,18.71,101.39,156.5,156.7,-0.1,0,4.008,38,-14,287,,,,,,,,0.515462963,45167,44.588768,-123.198997,62.400002,14,0.87,0.219340278,45167,-0.13,-0.003,0,0,0.436,-0.159,-0.182,0,150,-9999,-9999,1,rectangular,6000,5,-9999,-9999,55537,55537,55537,0,-9999,0,0,0,0,2.510428,2.527194,1.655297,0.936636,0.341832,-0.007294,0.485935,0.107405,79.950211,0.000239,2.400422,-0.000034,1,2.415003,-0.000039,1,0.602514,0.600977,0.1074,0,PSF-00508_20230829052127,PFA-00566,PSA-00583,PSF-00508,RHS-0736,2.0.0,2022-09-01T17:42:39.413Z
47,5:21:54 AM,8/29/23,Night sampling,CH,LCOR-320,,,,0.792434,0.046295,2.918256,0.045572,0.247941,1.607108,1.600113,2.148531,0.541424,15.781418,15.850399,21.190292,0.441786,PSF-00508_20230829052154,82.295181,396.477692,0,0,0,0.5,0.8,0.003403,71.26,70.95,19.36,18.58,101.39,156.3,156.8,-0.3,0,4.004,57,-14,347,,,,,,,,0.515775463,45167,44.588814,-123.198959,62.099998,16,0.76,0.219340278,45167,-0.13,0.003,0,-0.005,-0.26,-0.114,0.049,0,150,-9999,-9999,1,rectangular,6000,5,-9999,-9999,55537,55537,55537,0,-9999,0,0,0,0,2.510066,2.527057,1.653479,0.936883,0.341854,-0.008686,0.488073,0.107409,82.295181,0.000228,2.400422,-0.000034,1,2.415003,-0.000039,1,0.602514,0.600977,0.1074,0,PSF-00508_20230829052154,PFA-00566,PSA-00583,PSF-00508,RHS-0736,2.0.0,2022-09-01T17:42:39.413Z
48,5:24:09 AM,8/29/23,Night sampling,CH,LCOR-544,,,,0.806536,0.035949,2.918582,0.035512,0.186915,1.605731,1.60046,2.129566,0.523835,15.785067,15.837056,21.003551,0.441786,PSF-00508_20230829052409,82.077026,424.25,0,0,0,0.5,0.8,0.000112,71.11,70.87,19.38,18.44,101.39,156.3,156.5,-0.1,0,4.004,59,-26,287,,,,,,,,0.517349537,45167,44.588818,-123.198967,62.299999,15,0.76,0.219340278,45167,-0.13,-0.002,-0.002,0.003,0.02,0.003,-0.071,0,150,-9999,-9999,1,rectangular,6000,5,-9999,-9999,55537,55537,55537,0,-9999,0,0,0,0,2.509965,2.526849,1.653812,0.936136,0.341581,-0.010486,0.499036,0.1074,82.077026,0.000232,2.400422,-0.000034,1,2.415003,-0.000039,1,0.602514,0.600977,0.1074,0,PSF-00508_20230829052409,PFA-00566,PSA-00583,PSF-00508,RHS-0736,2.0.0,2022-09-01T17:42:39.413Z
49,5:24:21 AM,8/29/23,Night sampling,CH,LCOR-544,,,,0.790952,0.107848,2.918321,0.104005,0.431744,1.626683,1.614507,2.039963,0.41328,15.923692,16.043781,20.119913,0.441786,PSF-00508_20230829052421,86.014153,411.45694,0,0,0,0.5,0.8,-0.000285,72.05,71.51,19.38,17.76,101.39,156.3,156.3,0,0,3.999,37,1,285,,,,,,,,0.517384259,45167,44.588703,-123.198921,63.5,16,0.75,0.219340278,45167,-0.13,-0.01,-0.028,-0.049,0.864,2.069,1.104,0,150,-9999,-9999,1,rectangular,6000,5,-9999,-9999,55537,55537,55537,0,-9999,0,0,0,0,2.510816,2.528133,1.653545,0.935713,0.341619,-0.018042,0.499993,0.107399,86.014153,0.000231,2.400422,-0.000034,1,2.415003,-0.000039,1,0.602514,0.600977,0.1074,0,PSF-00508_20230829052421,PFA-00566,PSA-00583,PSF-00508,RHS-0736,2.0.0,2022-09-01T17:42:39.413Z
50,5:26:44 AM,8/29/23,Night sampling,CH,LCOR-014,,,,0.841561,0.139254,2.92068,0.132917,0.636536,1.620955,1.603036,2.097607,0.476653,15.810553,15.987285,20.688452,0.441786,PSF-00508_20230829052644,69.157722,436.49411,0,0,0,0.5,0.8,0.024315,71.77,70.98,19.38,18.2,101.39,156.6,156.2,0.3,0,3.999,52,-22,291,,,,,,,,0.519143519,45167,44.588696,-123.198936,63.700001,15,0.8,0.226782407,45167,-0.09,-0.006,-0.023,-0.047,-0.133,0.085,0.111,0,150,-9999,-9999,1,rectangular,6000,5,-9999,-9999,55537,55537,55537,0,-9999,0,0,0,0,2.5101,2.52769,1.65597,0.935304,0.341541,-0.013199,0.511446,0.107462,69.157722,0.000234,2.400422,-0.000034,1,2.415003,-0.000039,1,0.602514,0.600977,0.1074,0,PSF-00508_20230829052644,PFA-00566,PSA-00583,PSF-00508,RHS-0736,2.0.0,2022-09-01T17:42:39.413Z
51,5:27:05 AM,8/29/23,Night sampling,CH,LCOR-014,,,,0.849339,0.152879,2.91891,0.145271,0.678933,1.624118,1.604981,2.089261,0.465143,15.830906,16.019667,20.607655,0.441786,PSF-00508_20230829052705,51.485897,341.733459,0,0,0,0.5,0.8,-0.000165,71.88,71.03,19.39,18.14,101.38,156.4,155.3,0.7,0,3.995,64,-66,242,,,,,,,,0.519375,45167,44.58868,-123.198929,63.400002,15,0.78,0.226782407,45167,-0.09,-0.005,-0.014,-0.026,0.096,0.236,0.07,0,150,-9999,-9999,1,rectangular,6000,5,-9999,-9999,55537,55537,55537,0,-9999,0,0,0,0,2.510175,2.52784,1.654149,0.933021,0.341452,-0.013977,0.513034,0.1074,51.485897,0.000237,2.400422,-0.000034,1,2.415003,-0.000039,1,0.602514,0.600977,0.1074,0,PSF-00508_20230829052705,PFA-00566,PSA-00583,PSF-00508,RHS-0736,2.0.0,2022-09-01T17:42:39.413Z
52,5:30:56 AM,8/29/23,Night sampling,CH,LCOR-091,,,,0.827686,-0.00893,2.920509,-0.008958,-0.052081,1.586055,1.587522,2.164608,0.578554,15.658772,15.644304,21.35096,0.441786,PSF-00508_20230829053056,75.919029,440.584656,0,0,0,0.5,0.8,-0.002362,70.56,70.62,19.31,18.7,101.38,156.6,156.8,-0.2,0,3.991,49,0,4,,,,,,,,0.522060185,45167,44.588795,-123.198936,64,14,0.87,0.226782407,45167,-0.09,-0.003,0.002,0.011,0.142,0.236,-0.153,0,150,-9999,-9999,1,rectangular,6000,5,-9999,-9999,55537,55537,55537,0,-9999,0,0,0,0,2.509645,2.526054,1.655794,0.936883,0.342587,-0.006754,0.531079,0.107394,75.919029,0.000231,2.400422,-0.000034,1,2.415003,-0.000039,1,0.602514,0.600977,0.1074,0,PSF-00508_20230829053056,PFA-00566,PSA-00583,PSF-00508,RHS-0736,2.0.0,2022-09-01T17:42:39.413Z
53,5:32:56 AM,8/29/23,Night sampling,CH,LCOR-269,,,,0.815239,0.081209,2.919827,0.079011,0.423873,1.588726,1.576782,2.122713,0.533986,15.551228,15.669031,20.935545,0.441786,PSF-00508_20230829053256,78.415634,424.416656,0,0,0,0.5,0.8,0.000655,71.03,70.5,19.23,18.39,101.39,156.5,156.3,0.1,0,3.989,40,-19,13,,,,,,,,0.523425926,45167,44.588745,-123.198883,63,13,0.85,0.226782407,45167,-0.09,-0.001,-0.006,-0.017,0.01,-0.117,-0.377,0,150,-9999,-9999,1,rectangular,6000,5,-9999,-9999,55537,55537,55537,0,-9999,0,0,0,0,2.509497,2.526721,1.655092,0.935734,0.343698,-0.009324,0.540064,0.107402,78.415634,0.000235,2.400422,-0.000034,1,2.415003,-0.000039,1,0.602514,0.600977,0.1074,0,PSF-00508_20230829053256,PFA-00566,PSA-00583,PSF-00508,RHS-0736,2.0.0,2022-09-01T17:42:39.413Z
54,5:34:59 AM,8/29/23,Night sampling,CH,LCOR-507,,,,0.816312,0.008909,2.920125,0.008882,0.047476,1.583987,1.58265,2.116054,0.532067,15.609218,15.62241,20.870031,0.441786,PSF-00508_20230829053459,83.153847,452.689636,0,0,0,0.5,0.8,0.163065,71.21,71.15,19.14,18.34,101.39,156.5,156.6,-0.1,0,3.984,66,22,1,,,,,,,,0.524872685,45167,44.588715,-123.198898,62.799999,15,0.77,0.226782407,45167,-0.09,0,-0.005,-0.019,-0.083,-0.111,-0.105,0,150,-9999,-9999,1,rectangular,6000,5,-9999,-9999,55537,55537,55537,0,-9999,0,0,0,0,2.51039,2.526982,1.655399,0.936427,0.344911,-0.008894,0.549222,0.10783,82.587723,0.000232,2.400422,-0.000034,1,2.415003,-0.000039,1,0.602514,0.600977,0.1074,0,PSF-00508_20230829053459,PFA-00566,PSA-00583,PSF-00508,RHS-0736,2.0.0,2022-09-01T17:42:39.413Z
55,5:36:53 AM,8/29/23,Night sampling,CH,LCOR-562,,,,0.791154,0.000212,2.919671,0.000212,0.001216,1.579283,1.579249,2.151226,0.571943,15.575595,15.575933,21.216816,0.441786,PSF-00508_20230829053653,87.543015,419.175629,0,0,0,0.5,0.8,0.00011,71.26,71.26,19.08,18.6,101.39,156.5,156.6,-0.1,0,3.981,30,2,304,,,,,,,,0.52619213,45167,44.588673,-123.198814,64.800003,17,0.69,0.226782407,45167,-0.09,0.002,0.005,0.008,-0.27,-0.307,-0.182,0,150,-9999,-9999,1,rectangular,6000,5,-9999,-9999,55537,55537,55537,0,-9999,0,0,0,0,2.510551,2.527066,1.654931,0.936364,0.345733,-0.005294,0.557702,0.1074,87.543015,0.000232,2.400422,-0.000034,1,2.415003,-0.000039,1,0.602514,0.600977,0.1074,0,PSF-00508_20230829053653,PFA-00566,PSA-00583,PSF-00508,RHS-0736,2.0.0,2022-09-01T17:42:39.413Z
56,5:39:43 AM,8/29/23,Night sampling,CH,LCOR-271,,,,0.806969,0.000826,2.918975,0.000826,0.004106,1.593886,1.59377,2.088686,0.4948,15.71924,15.720383,20.600561,0.441786,PSF-00508_20230829053943,91.81559,475.651489,0,0,0,0.5,0.8,0.005074,72.17,72.17,19.02,18.13,101.39,156.4,156.6,-0.2,0,3.979,32,0,310,,,,,,,,0.528148148,45167,44.588863,-123.198845,65.900002,16,0.73,0.235775463,45167,-0.03,-0.004,-0.009,-0.008,-0.323,-0.258,0.218,0,150,-9999,-9999,1,rectangular,6000,5,-9999,-9999,55537,55537,55537,0,-9999,0,0,0,0,2.511783,2.528257,1.654216,0.936488,0.346521,-0.009894,0.570312,0.107414,91.69471,0.000229,2.400422,-0.000034,1,2.415003,-0.000039,1,0.602514,0.600977,0.1074,0,PSF-00508_20230829053943,PFA-00566,PSA-00583,PSF-00508,RHS-0736,2.0.0,2022-09-01T17:42:39.413Z
57,5:41:42 AM,8/29/23,Night sampling,CH,LCOR-072,,,,0.811004,0.164663,2.920698,0.155875,0.662503,1.589379,1.570723,2.012665,0.423286,15.491471,15.675468,19.850182,0.441786,PSF-00508_20230829054142,75.530289,399.640564,0,0,0,0.5,0.8,0.00146,72.18,71.34,18.98,17.54,101.39,156.6,156.5,0,0,3.976,41,-26,327,,,,,,,,0.529525463,45167,44.58894,-123.198853,68,17,0.64,0.235775463,45167,-0.03,-0.014,-0.034,-0.113,0.379,0.146,-0.119,0,150,-9999,-9999,1,rectangular,6000,5,-9999,-9999,55537,55537,55537,0,-9999,0,0,0,0,2.510683,2.528284,1.655989,0.936191,0.347189,-0.015873,0.578985,0.107404,75.530289,0.000236,2.400422,-0.000034,1,2.415003,-0.000039,1,0.602514,0.600977,0.1074,0,PSF-00508_20230829054142,PFA-00566,PSA-00583,PSF-00508,RHS-0736,2.0.0,2022-09-01T17:42:39.413Z
58,5:43:27 AM,8/29/23,Night sampling,CH,LCOR-247,,,,0.805652,0.089807,2.920559,0.087128,0.360634,1.599122,1.588966,2.011354,0.412233,15.670426,15.770586,19.836035,0.441786,PSF-00508_20230829054327,81.053856,417.054901,0,0,0,0.5,0.8,0.00212,72.99,72.52,18.9,17.53,101.4,156.6,156.4,0.1,0,3.974,51,-14,345,,,,,,,,0.530729167,45167,44.588917,-123.19883,67.199997,17,0.64,0.235775463,45167,-0.03,-0.012,-0.031,-0.071,0.035,-0.295,-0.282,0,150,-9999,-9999,1,rectangular,6000,5,-9999,-9999,55537,55537,55537,0,-9999,0,0,0,0,2.512294,2.529401,1.655846,0.935836,0.348307,-0.015088,0.586245,0.107406,81.053856,0.000237,2.400422,-0.000034,1,2.415003,-0.000039,1,0.602514,0.600977,0.1074,0,PSF-00508_20230829054327,PFA-00566,PSA-00583,PSF-00508,RHS-0736,2.0.0,2022-09-01T17:42:39.413Z
59,5:45:12 AM,8/29/23,Night sampling,CH,LCOR-079,,,,0.827419,0.01096,2.920097,0.010919,0.053122,1.571927,1.57043,2.056474,0.484548,15.486555,15.501319,20.279613,0.441786,PSF-00508_20230829054512,75.351479,436.616058,0,0,0,0.5,0.8,0.000252,71.98,71.91,18.84,17.89,101.41,156.5,156.6,0,0,3.97,29,-6,337,,,,,,,,0.531956019,45167,44.588974,-123.198776,68,16,0.65,0.235775463,45167,-0.03,-0.001,-0.008,-0.022,0.05,-0.255,-0.35,0,150,-9999,-9999,1,rectangular,6000,5,-9999,-9999,55537,55537,55537,0,-9999,0,0,0,0,2.511489,2.528042,1.655369,0.936309,0.34904,-0.010608,0.593622,0.107401,75.351479,0.000236,2.400422,-0.000034,1,2.415003,-0.000039,1,0.602514,0.600977,0.1074,0,PSF-00508_20230829054512,PFA-00566,PSA-00583,PSF-00508,RHS-0736,2.0.0,2022-09-01T17:42:39.413Z
60,5:46:43 AM,8/29/23,Night sampling,CH,LCOR-058,,,,0.826895,0.024713,2.919845,0.024506,0.114329,1.58124,1.578018,2.045851,0.46461,15.562193,15.593969,20.175892,0.441786,PSF-00508_20230829054643,76.779129,443.541168,0,0,0,0.5,0.8,0.053166,72.55,72.4,18.81,17.8,101.4,156.5,156.7,-0.1,0,3.968,36,-28,305,,,,,,,,0.533009259,45167,44.588898,-123.198616,65,16,0.65,0.235775463,45167,-0.03,0,-0.003,-0.013,-0.053,0.663,0.642,0,150,-9999,-9999,1,rectangular,6000,5,-9999,-9999,55537,55537,55537,0,-9999,0,0,0,0,2.51215,2.528823,1.65511,0.936628,0.349478,-0.01117,0.600071,0.107538,76.779129,0.000232,2.400422,-0.000034,1,2.415003,-0.000039,1,0.602514,0.600977,0.1074,0,PSF-00508_20230829054643,PFA-00566,PSA-00583,PSF-00508,RHS-0736,2.0.0,2022-09-01T17:42:39.413Z
61,5:49:02 AM,8/29/23,Night sampling,CH,LCOR-209,,,,0.765056,0.007355,2.919475,0.007337,0.034975,1.578682,1.577696,2.053401,0.474719,15.558712,15.568436,20.24996,0.441786,PSF-00508_20230829054902,78.551529,334.341644,0,0,0,0.5,0.8,0.192754,72.62,72.57,18.77,17.86,101.4,156.4,156.8,-0.2,1,3.966,47,-13,257,,,,,,,,0.534606481,45167,44.588875,-123.198555,65.400002,15,0.69,0.235775463,45167,-0.03,0,-0.003,-0.004,0.157,-0.227,-0.091,0,150,-9999,-9999,1,rectangular,6000,5,-9999,-9999,55537,55537,55537,0,-9999,0,0,0,0,2.512391,2.528929,1.65473,0.936884,0.35006,-0.010056,0.609131,0.107942,78.551529,0.000232,2.400422,-0.000034,1,2.415003,-0.000039,1,0.602514,0.600977,0.1074,0,PSF-00508_20230829054902,PFA-00566,PSA-00583,PSF-00508,RHS-0736,2.0.0,2022-09-01T17:42:39.413Z
62,5:51:03 AM,8/29/23,Night sampling,CH,LCOR-503,,,,0.811787,0.000343,2.918432,0.000343,0.001653,1.584069,1.584022,2.064229,0.48016,15.619861,15.620321,20.355127,0.441786,PSF-00508_20230829055103,80.394028,427.143585,0,0,0,0.5,0.8,0.002541,72.92,72.92,18.76,17.95,101.41,156.3,156.6,-0.2,0,3.964,30,-10,322,,,,,,,,0.536030093,45167,44.588795,-123.198425,61.599998,16,0.65,0.243668981,45167,-0.07,-0.001,-0.003,-0.006,-0.194,0.101,0.008,0,150,-9999,-9999,1,rectangular,6000,5,-9999,-9999,55537,55537,55537,0,-9999,0,0,0,0,2.51286,2.529389,1.653658,0.936371,0.350237,-0.008989,0.617914,0.107407,80.394028,0.000232,2.400422,-0.000034,1,2.415003,-0.000039,1,0.602514,0.600977,0.1074,0,PSF-00508_20230829055103,PFA-00566,PSA-00583,PSF-00508,RHS-0736,2.0.0,2022-09-01T17:42:39.413Z
63,5:52:51 AM,8/29/23,Night sampling,CH,LCOR-322,,,,0.827336,-0.023984,2.919317,-0.024183,-0.114997,1.568281,1.571524,2.041921,0.473641,15.497191,15.465212,20.135902,0.441786,PSF-00508_20230829055251,80.811737,468.028656,0,0,0,0.5,0.8,0.006853,72.25,72.4,18.75,17.77,101.41,156.4,156.9,-0.3,0,3.96,43,-21,277,,,,,,,,0.537268519,45167,44.588737,-123.19767,64.199997,16,0.65,0.243668981,45167,-0.07,-0.004,-0.014,-0.007,-0.181,0.202,0.154,0,150,-9999,-9999,1,rectangular,6000,5,-9999,-9999,55537,55537,55537,0,-9999,0,0,0,0,2.512157,2.528467,1.654567,0.937101,0.350387,-0.010781,0.625217,0.107418,80.811737,0.000236,2.400422,-0.000034,1,2.415003,-0.000039,1,0.602514,0.600977,0.1074,0,PSF-00508_20230829055251,PFA-00566,PSA-00583,PSF-00508,RHS-0736,2.0.0,2022-09-01T17:42:39.413Z
64,5:56:06 AM,8/29/23,Night sampling,CH,LCOR-159,,,,0.824757,0.143213,2.919815,0.136517,0.563265,1.587108,1.571233,1.998121,0.411013,15.494055,15.650604,19.703634,0.441786,PSF-00508_20230829055606,76.434731,436.1633,0,0,0,0.5,0.8,0.005872,73.59,72.85,18.64,17.43,101.41,156.5,156,0.3,0,3.955,36,-2,323,,,,,,,,0.539537037,45167,44.588943,-123.197678,65.900002,17,0.63,0.243668981,45167,-0.07,-0.007,-0.023,-0.047,0.053,0.13,0.216,0,150,-9999,-9999,1,rectangular,6000,5,-9999,-9999,55537,55537,55537,0,-9999,0,0,0,0,2.512793,2.530319,1.655079,0.934762,0.351848,-0.013419,0.637622,0.107415,76.434731,0.00023,2.400422,-0.000034,1,2.415003,-0.000039,1,0.602514,0.600977,0.1074,0,PSF-00508_20230829055606,PFA-00566,PSA-00583,PSF-00508,RHS-0736,2.0.0,2022-09-01T17:42:39.413Z
65,5:58:13 AM,8/29/23,Night sampling,CH,LCOR-232,,,,0.811612,0.084145,2.919453,0.081788,0.361032,1.574183,1.564003,2.013887,0.439705,15.423488,15.523871,19.860037,0.441786,PSF-00508_20230829055813,78.561188,417.018066,0,0,0,0.5,0.8,0.118688,73.29,72.81,18.58,17.55,101.4,156.4,155.8,0.4,0,3.953,42,20,339,,,,,,,,0.541006944,45167,44.588913,-123.197617,65.599998,17,0.63,0.243668981,45167,-0.07,-0.005,-0.012,-0.026,-0.326,-0.236,-0.423,0,150,-9999,-9999,1,rectangular,6000,5,-9999,-9999,55537,55537,55537,0,-9999,0,0,0,0,2.512756,2.529924,1.654707,0.934448,0.352769,-0.011315,0.645887,0.107715,78.561188,0.000226,2.400422,-0.000034,1,2.415003,-0.000039,1,0.602514,0.600977,0.1074,0,PSF-00508_20230829055813,PFA-00566,PSA-00583,PSF-00508,RHS-0736,2.0.0,2022-09-01T17:42:39.413Z
66,6:00:37 AM,8/29/23,Night sampling,CH,LCOR-412,,,,0.789449,0.033295,2.91982,0.03292,0.159231,1.571465,1.566977,2.053202,0.481737,15.45239,15.496652,20.247192,0.441786,PSF-00508_20230829060037,85.129738,404.319061,0,0,0,0.5,0.8,0.008245,73.31,73.1,18.55,17.86,101.41,156.5,156.6,-0.1,0,3.949,43,-8,307,,,,,,,,0.542662037,45167,44.589043,-123.198845,61.299999,17,0.63,0.243668981,45167,-0.07,-0.001,0,-0.006,0.102,-0.006,-0.212,0,150,-9999,-9999,1,rectangular,6000,5,-9999,-9999,55537,55537,55537,0,-9999,0,0,0,0,2.513154,2.529969,1.655085,0.936466,0.353244,-0.007545,0.654837,0.107422,85.129738,0.00023,2.400422,-0.000034,1,2.415003,-0.000039,1,0.602514,0.600977,0.1074,0,PSF-00508_20230829060037,PFA-00566,PSA-00583,PSF-00508,RHS-0736,2.0.0,2022-09-01T17:42:39.413Z