Obs#,Time,Date,configName,configAuthor,remark,Observation,ID,leaf,gsw,gbw,gtw,E_apparent,VPcham,VPref,VPleaf,VPDleaf,H2O_r,H2O_s,H2O_leaf,leaf_area,flashID,Fo,Fm,Fv/Fm,Fs,Fm',PhiPS2,PS2/1,abs,ETR,rh_s,rh_r,Tref,Tleaf,P_atm,flow,flow_s,leak_pct,Qamb,batt,pitch,roll,heading,angle_inc_leaf,direct_pct,slope_leaf,az_leaf,dec_solar,az_solar,zenith_solar,gps_time,gps_date,latitude,longitude,altitude,gps_sats,gps_HDOP,match_time,match_date,rh_adj,gsw1sec,gsw2sec,gsw4sec,flr1sec,flr2sec,flr4sec,auto,flow_set,gsw_limit,gsw_period,dark,flash_type,flash_intensity,modrate,flr_limit,flr_period,P1_dur,P2_dur,P3_dur,P1_Fmax,P2_ramp,P2_slp,P3_Fmax,P3_Pred,P3_DeltaF,v_humA,v_humB,v_flowIn,v_flowOut,v_temp,v_irt,v_pres,v_par,v_F,i_LED,b_rhr,m_rhr,span_rhr,b_rhs,m_rhs,span_rhs,z_flowIn,z_flowOut,z_quantum,z_flr,flashId,lciSerNum,lcpSerNum,lcfSerNum,lcrhSerNum,version,configUpdatedAt
1,12:01:54,9/19/22,Auto gsw+F,LI-COR Default,,1,LCOR-599,14,0.024202,2.917527,0.024002,0.755048,1.397468,1.376329,4.462808,3.06534,13.71184,13.922439,44.461239,0.441786,PSF-00336_20220919120154,0,0,0,82.336662,108.159752,0.23875,0.5,0.8,184.913223,46.65,45.94,24,30.81,100.38,156.2,154.7,1,1936,4.094,23,-173,70,,,,,,,,0:00:00,0000-00-00,0,0,0,0,0,12:00:47,9/19/22,-0.31,0,-0.002,-9999,-2.763,-2.705,-9999,1,150,0.005,2,0,mpf,7000,500,5,2,300,300,300,101.458672,25,-5.389963,99.089745,100.459709,-1.369965,2.460066,2.449066,1.65746,0.926042,0.283788,0.082718,0.18617,1.87033,82.336662,0.000563,2.386067,-0.000044,1,2.373562,-0.000053,1,0.600878,0.600715,0.106777,0,PSF-00336_20220919120154,PFA-00364,PSA-00381,PSF-00336,RHS-00170,2.0.0,2021-01-19T12:57:14.097Z
2,12:02:48,9/19/22,Auto gsw+F,LI-COR Default,,2,LCOR-316,12,0.280157,2.91577,0.255598,4.974292,1.49356,1.354244,3.399314,1.905754,13.492314,14.880321,33.867329,0.441786,PSF-00336_20220919120248,0,0,0,108.401299,157.27211,0.31074,0.5,0.8,207.478348,48.83,44.27,24.35,26.13,100.37,156,154.4,1,1669,4.093,7,-175,92,,,,,,,,0:00:00,0000-00-00,0,0,0,0,0,12:00:47,9/19/22,-0.31,0.001,0.002,-9999,-1.382,-2.031,-9999,1,150,0.005,2,0,mpf,7000,500,5,2,300,300,300,148.880478,25,-6.347733,147.213928,148.203812,-0.989883,2.457657,2.452013,1.655603,0.925415,0.279868,0.020558,0.191171,1.627108,108.401299,0.000579,2.386067,-0.000044,1,2.373562,-0.000053,1,0.600878,0.600715,0.106777,0,PSF-00336_20220919120248,PFA-00364,PSA-00381,PSF-00336,RHS-00170,2.0.0,2021-01-19T12:57:14.097Z
4,12:03:48,9/19/22,Auto gsw+F,LI-COR Default,,4,LCOR-100,12,0.108556,2.91723,0.104661,2.640028,1.438498,1.364607,3.902806,2.464308,13.596371,14.332597,38.885933,0.441786,PSF-00336_20220919120348,0,0,0,101.714729,141.414597,0.280734,0.5,0.8,208.917877,46.22,43.85,24.64,28.48,100.37,156.1,154.6,1,1860,4.09,23,177,83,,,,,,,,0:00:00,0000-00-00,0,0,0,0,0,12:00:47,9/19/22,-0.31,0,-0.001,0.002,-1.661,-3.782,-12.321,1,150,0.005,2,0,mpf,7000,500,5,2,300,300,300,134.997726,25,-4.651113,134.463425,134.770065,-0.306641,2.456998,2.448306,1.657146,0.925928,0.276671,0.045785,0.196569,1.801286,101.714729,0.000566,2.386067,-0.000044,1,2.373562,-0.000053,1,0.600878,0.600715,0.106777,0,PSF-00336_20220919120348,PFA-00364,PSA-00381,PSF-00336,RHS-00170,2.0.0,2021-01-19T12:57:14.097Z
5,12:04:21,9/19/22,Auto gsw+F,LI-COR Default,,5,LCOR-304,14,0.172184,2.917678,0.162589,3.759761,1.456293,1.351099,3.717757,2.261464,13.459473,14.507404,37.035812,0.441786,PSF-00336_20220919120421,0,0,0,112.159607,160.638779,0.30179,0.5,0.8,227.419189,46.39,43.04,24.79,27.65,100.38,156.2,154.8,0.9,1884,4.09,43,-165,88,,,,,,,,0:00:00,0000-00-00,0,0,0,0,0,12:00:47,9/19/22,-0.31,0,0.001,-9999,-2.276,-4.615,-9999,1,150,0.005,2,0,mpf,7000,500,5,2,300,300,300,150.964737,25,-7.34655,149.01387,150.143585,-1.129715,2.455831,2.448501,1.65762,0.926221,0.275066,0.033802,0.199456,1.822651,112.159607,0.000569,2.386067,-0.000044,1,2.373562,-0.000053,1,0.600878,0.600715,0.106777,0,PSF-00336_20220919120421,PFA-00364,PSA-00381,PSF-00336,RHS-00170,2.0.0,2021-01-19T12:57:14.097Z
6,12:05:04,9/19/22,Auto gsw+F,LI-COR Default,,6,LCOR-494,12,0.265443,2.916406,0.243299,5.126855,1.481302,1.337765,3.543431,2.06213,13.328039,14.758079,35.302895,0.441786,PSF-00336_20220919120504,0,0,0,124.146942,176.778519,0.297726,0.5,0.8,231.368484,46.71,42.18,24.96,26.83,100.37,156,151.5,2.9,1943,4.09,20,-167,81,,,,,,,,0:00:00,0000-00-00,0,0,0,0,0,12:00:47,9/19/22,-0.31,0.002,0.003,0.015,-1.904,-3.868,-7.924,1,150,0.005,2,0,mpf,7000,500,5,2,300,300,300,167.304047,25,-7.060132,165.771606,166.69249,-0.920883,2.45459,2.448902,1.656275,0.918075,0.273198,0.021814,0.203169,1.876276,124.146942,0.000561,2.386067,-0.000044,1,2.373562,-0.000053,1,0.600878,0.600715,0.106777,0,PSF-00336_20220919120504,PFA-00364,PSA-00381,PSF-00336,RHS-00170,2.0.0,2021-01-19T12:57:14.097Z
7,12:05:42,9/19/22,Auto gsw+F,LI-COR Default,,7,LCOR-439,12,0.398295,2.916457,0.350437,7.134925,1.587763,1.388242,3.578635,1.990872,13.831762,15.819691,35.655762,0.441786,PSF-00336_20220919120542,0,0,0,113.346573,156.720322,0.276759,0.5,0.8,224.096146,49.63,43.39,25.1,27,100.37,156.1,155.4,0.4,2024,4.089,25,-151,98,,,,,,,,0:00:00,0000-00-00,0,0,0,0,0,12:00:47,9/19/22,-0.31,0.001,0.003,0.008,-1.751,-2.791,2.837,1,150,0.005,2,0,mpf,7000,500,5,2,300,300,300,146.251923,25,-8.271482,142.816544,144.903778,-2.087234,2.456254,2.452929,1.656328,0.927896,0.271616,0.022101,0.206458,1.950501,113.346573,0.000563,2.386067,-0.000044,1,2.373562,-0.000053,1,0.600878,0.600715,0.106777,0,PSF-00336_20220919120542,PFA-00364,PSA-00381,PSF-00336,RHS-00170,2.0.0,2021-01-19T12:57:14.097Z
8,12:07:03,9/19/22,Auto gsw+F,LI-COR Default,,8,LCOR-378,12,0.455926,2.918264,0.394321,7.402876,1.547517,1.340736,3.385263,1.837746,13.359867,15.420355,33.732708,0.441786,PSF-00336_20220919120703,0,0,0,229.887131,306.217957,0.24927,0.5,0.8,195.478149,47.65,41.28,25.35,26.06,100.36,156.3,155.6,0.4,1961,4.086,45,-160,91,,,,,,,,0:00:00,0000-00-00,0,0,0,0,0,12:00:47,9/19/22,-0.31,-0.001,-0.001,-9999,8.841,-1.159,-9999,1,150,0.005,2,0,mpf,7000,500,5,2,300,300,300,289.599548,25,-13.921412,282.711639,286.329987,-3.618347,2.453239,2.450117,1.658242,0.928427,0.268896,0.007759,0.213535,1.892409,229.887131,0.000577,2.386067,-0.000044,1,2.373562,-0.000053,1,0.600878,0.600715,0.106777,0,PSF-00336_20220919120703,PFA-00364,PSA-00381,PSF-00336,RHS-00170,2.0.0,2021-01-19T12:57:14.097Z
9,12:07:53,9/19/22,Auto gsw+F,LI-COR Default,,9,LCOR-595,8,0.477335,2.917153,0.410212,8.40405,1.603299,1.368464,3.606059,2.002759,13.63532,15.9752,35.930607,0.441786,PSF-00336_20220919120753,0,0,0,86.28595,161.496155,0.465709,0.5,0.8,384.262299,49.05,41.87,25.46,27.13,100.36,156.1,155.1,0.7,2063,4.084,0,-150,93,,,,,,,,0:00:00,0000-00-00,0,0,0,0,0,12:00:47,9/19/22,-0.31,0.001,0.001,0.014,-0.711,-1.547,-2.908,1,150,0.005,2,0,mpf,7000,500,5,2,300,300,300,145.959015,25,-10.817326,145.582077,146.042648,-0.460571,2.454033,2.452031,1.657064,0.927082,0.267734,0.019342,0.217751,1.985559,86.28595,0.000584,2.386067,-0.000044,1,2.373562,-0.000053,1,0.600878,0.600715,0.106777,0,PSF-00336_20220919120753,PFA-00364,PSA-00381,PSF-00336,RHS-00170,2.0.0,2021-01-19T12:57:14.097Z
10,12:09:18,9/19/22,Auto gsw+F,LI-COR Default,,10,LCOR-371,12,0.49162,2.917263,0.42072,6.387626,1.528547,1.349931,3.017848,1.489301,13.450117,15.229771,30.06851,0.441786,PSF-00336_20220919120918,0,0,0,81.725838,267.624207,0.694625,0.5,0.8,409.237213,46.13,40.74,25.69,24.13,100.37,156.2,155.8,0.2,1473,4.083,19,-169,101,,,,,,,,0:00:00,0000-00-00,0,0,0,0,0,12:00:47,9/19/22,-0.31,0.004,0.003,0.021,0.243,0.437,0.679,1,150,0.005,2,0,mpf,7000,500,5,2,300,300,300,242.302887,25,-17.050127,246.684906,243.266586,3.41832,2.452398,2.447911,1.657181,0.928878,0.265297,-0.019023,0.224831,1.448269,81.725838,0.00061,2.386067,-0.000044,1,2.373562,-0.000053,1,0.600878,0.600715,0.106777,0,PSF-00336_20220919120918,PFA-00364,PSA-00381,PSF-00336,RHS-00170,2.0.0,2021-01-19T12:57:14.097Z
11,12:11:02,9/19/22,Auto gsw+F,LI-COR Default,,11,LCOR-234,12,0.309989,2.916523,0.280207,5.750126,1.506479,1.345539,3.51482,2.00834,13.404692,15.008026,35.015751,0.441786,PSF-00336_20220919121102,0,0,0,101.13752,243.89418,0.585322,0.5,0.8,156.105301,44.77,39.99,25.95,26.69,100.38,156.1,155.4,0.4,667,4.081,3,159,77,,,,,,,,0:00:00,0000-00-00,0,0,0,0,0,12:00:47,9/19/22,-0.31,0.002,0.003,0.031,0.183,1.154,2.708,1,150,0.005,2,0,mpf,7000,500,5,2,300,300,300,212.844376,25,-21.711273,209.723358,212.877701,-3.154343,2.451274,2.445936,1.656399,0.927785,0.262555,0.008198,0.23329,0.714053,101.13752,0.000585,2.386067,-0.000044,1,2.373562,-0.000053,1,0.600878,0.600715,0.106777,0,PSF-00336_20220919121102,PFA-00364,PSA-00381,PSF-00336,RHS-00170,2.0.0,2021-01-19T12:57:14.097Z
12,12:12:08,9/19/22,Auto gsw+F,LI-COR Default,,12,LCOR-461,14,0.444484,2.915495,0.385685,7.513377,1.596692,1.386411,3.502562,1.90587,13.811107,15.905879,34.89172,0.441786,PSF-00336_20220919121208,0,0,0,106.008408,203.734039,0.479673,0.5,0.8,326.904266,47.04,40.84,26.1,26.63,100.38,155.9,155.1,0.5,1704,4.079,-3,169,119,,,,,,,,0:00:00,0000-00-00,0,0,0,0,0,12:11:47,9/19/22,-0.24,-0.001,0.003,0.012,-0.363,-0.756,1.427,1,150,0.005,2,0,mpf,7000,500,5,2,300,300,300,184.588196,25,-13.381412,183.301086,184.617508,-1.316422,2.452449,2.44898,1.655313,0.927024,0.26102,0.005716,0.238581,1.658588,106.008408,0.000596,2.386067,-0.000044,1,2.373562,-0.000053,1,0.600878,0.600715,0.106777,0,PSF-00336_20220919121208,PFA-00364,PSA-00381,PSF-00336,RHS-00170,2.0.0,2021-01-19T12:57:14.097Z
13,12:13:17,9/19/22,Auto gsw+F,LI-COR Default,,13,LCOR-519,11,0.470166,2.917896,0.40492,7.890182,1.653165,1.432879,3.558458,1.905293,14.273903,16.468327,35.44828,0.441786,PSF-00336_20220919121317,0,0,0,111.324188,257.671143,0.56796,0.5,0.8,362.38028,48.32,41.88,26.23,26.9,100.38,156.2,154.1,1.4,1595,4.077,-20,168,117,,,,,,,,0:00:00,0000-00-00,0,0,0,0,0,12:11:47,9/19/22,-0.24,0.002,0.002,0.011,0.315,-0.269,0.649,1,150,0.005,2,0,mpf,7000,500,5,2,300,300,300,228.791351,25,-20.051138,227.104782,229.026321,-1.921539,2.453878,2.450728,1.657851,0.924464,0.259649,0.007355,0.243945,1.55959,111.324188,0.000601,2.386067,-0.000044,1,2.373562,-0.000053,1,0.600878,0.600715,0.106777,0,PSF-00336_20220919121317,PFA-00364,PSA-00381,PSF-00336,RHS-00170,2.0.0,2021-01-19T12:57:14.097Z
14,12:14:26,9/19/22,Auto gsw+F,LI-COR Default,,14,LCOR-490,13,0.35255,2.91493,0.314511,6.466788,1.573164,1.39202,3.584521,2.011357,13.864636,15.668849,35.702137,0.441786,PSF-00336_20220919121426,0,0,0,98.545433,165.460617,0.404418,0.5,0.8,235.328949,45.51,40.27,26.41,27.03,100.4,155.9,155.5,0.3,1455,4.075,26,-168,108,,,,,,,,0:00:00,0000-00-00,0,0,0,0,0,12:11:47,9/19/22,-0.24,-0.001,-0.002,0.012,-0.957,-1.334,-2.589,1,150,0.005,2,0,mpf,7000,500,5,2,300,300,300,155.227661,25,-7.111212,154.634003,155.30162,-0.667618,2.451575,2.446773,1.654718,0.927999,0.257849,0.006742,0.249075,1.431754,98.545433,0.000628,2.386067,-0.000044,1,2.373562,-0.000053,1,0.600878,0.600715,0.106777,0,PSF-00336_20220919121426,PFA-00364,PSA-00381,PSF-00336,RHS-00170,2.0.0,2021-01-19T12:57:14.097Z
15,12:15:58,9/19/22,Auto gsw+F,LI-COR Default,,15,LCOR-155,15,0.320218,2.916206,0.288535,7.145924,1.633574,1.433756,4.04941,2.415836,14.28229,16.272758,40.33799,0.441786,PSF-00336_20220919121558,0,0,0,111.611725,272.90799,0.591028,0.5,0.8,373.927795,46.51,40.82,26.68,29.12,100.39,156,155.3,0.5,1582,4.073,-15,177,122,,,,,,,,0:00:00,0000-00-00,0,0,0,0,0,12:11:47,9/19/22,-0.24,0.002,0.004,-9999,0.752,1.546,-9999,1,150,0.005,2,0,mpf,7000,500,5,2,300,300,300,233.468048,25,-28.078161,227.462051,232.795853,-5.333801,2.452293,2.448103,1.656063,0.927578,0.255098,0.028986,0.255793,1.547375,111.611725,0.00062,2.386067,-0.000044,1,2.373562,-0.000053,1,0.600878,0.600715,0.106777,0,PSF-00336_20220919121558,PFA-00364,PSA-00381,PSF-00336,RHS-00170,2.0.0,2021-01-19T12:57:14.097Z
16,12:17:16,9/19/22,Auto gsw+F,LI-COR Default,,16,LCOR-102,15,0.33701,2.917237,0.30211,6.958549,1.647766,1.453369,3.896198,2.248432,14.477378,16.413807,38.811001,0.441786,PSF-00336_20220919121716,0,0,0,126.326324,234.418396,0.461107,0.5,0.8,21.667706,46.52,41.03,26.82,28.45,100.39,156.2,155,0.7,117,4.069,0,-163,83,,,,,,,,0:00:00,0000-00-00,0,0,0,0,0,12:11:47,9/19/22,-0.24,0.002,0.001,0.014,-1.257,-1.95,-5.424,1,150,0.005,2,0,mpf,7000,500,5,2,300,300,300,214.821701,25,-13.636817,213.667984,214.936996,-1.269012,2.452551,2.448074,1.657153,0.926796,0.253632,0.019048,0.261442,0.213775,126.326324,0.000602,2.386067,-0.000044,1,2.373562,-0.000053,1,0.600878,0.600715,0.106777,0,PSF-00336_20220919121716,PFA-00364,PSA-00381,PSF-00336,RHS-00170,2.0.0,2021-01-19T12:57:14.097Z
17,12:20:24,9/19/22,Auto gsw+F,LI-COR Default,,17,LCOR-025,13,0.339227,2.918253,0.303901,6.799303,1.611866,1.422015,3.797251,2.185385,14.165998,16.057281,37.827915,0.441786,PSF-00336_20220919122024,0,0,0,87.579849,240.581161,0.635965,0.5,0.8,305.973663,44.35,39.13,27.26,28.01,100.38,156.3,154.7,1,1203,4.067,-5,160,79,,,,,,,,0:00:00,0000-00-00,0,0,0,0,0,12:11:47,9/19/22,-0.24,-0.003,-0.002,0.03,0.517,1.14,2.392,1,150,0.005,2,0,mpf,7000,500,5,2,300,300,300,204.633591,25,-24.927555,202.240341,204.96994,-2.729599,2.449776,2.444939,1.65823,0.925971,0.24926,0.008345,0.274741,1.20228,87.579849,0.00062,2.386067,-0.000044,1,2.373562,-0.000053,1,0.600878,0.600715,0.106777,0,PSF-00336_20220919122024,PFA-00364,PSA-00381,PSF-00336,RHS-00170,2.0.0,2021-01-19T12:57:14.097Z
18,12:21:29,9/19/22,Auto gsw+F,LI-COR Default,,18,LCOR-432,13,0.407189,2.91709,0.357313,7.651342,1.66008,1.446334,3.751795,2.091716,14.407476,16.536674,37.373039,0.441786,PSF-00336_20220919122129,0,0,0,124.995232,269.742584,0.536613,0.5,0.8,302.635864,45.3,39.46,27.4,27.8,100.39,156.1,155.6,0.4,1410,4.066,16,153,67,,,,,,,,0:00:00,0000-00-00,0,0,0,0,0,12:11:47,9/19/22,-0.24,0.002,0.003,0.016,-1.073,-1.787,3.267,1,150,0.005,2,0,mpf,7000,500,5,2,300,300,300,243.3461,25,-18.657354,240.698212,243.088898,-2.390686,2.450221,2.446225,1.656998,0.928253,0.24785,0.004105,0.27897,1.390947,124.995232,0.000605,2.386067,-0.000044,1,2.373562,-0.000053,1,0.600878,0.600715,0.106777,0,PSF-00336_20220919122129,PFA-00364,PSA-00381,PSF-00336,RHS-00170,2.0.0,2021-01-19T12:57:14.097Z
19,12:22:57,9/19/22,Auto gsw+F,LI-COR Default,,19,LCOR-523,12,0.295184,2.917116,0.268059,5.447731,1.609029,1.456765,3.596346,1.987316,14.51109,16.027826,35.823837,0.441786,PSF-00336_20220919122257,0,0,0,107.837677,299.671875,0.640148,0.5,0.8,256.652893,43.44,39.33,27.59,27.08,100.39,156.1,151.5,3,1002,4.065,0,-163,107,,,,,,,,0:00:00,0000-00-00,0,0,0,0,0,12:22:47,9/19/22,-0.22,-0.006,-0.003,0.01,0.037,-0.34,-0.73,1,150,0.005,2,0,mpf,7000,500,5,2,300,300,300,268.739807,25,-21.60911,266.142731,268.801331,-2.6586,2.449986,2.44354,1.657025,0.918107,0.246059,-0.006832,0.284793,1.01969,107.837677,0.000631,2.386067,-0.000044,1,2.373562,-0.000053,1,0.600878,0.600715,0.106777,0,PSF-00336_20220919122257,PFA-00364,PSA-00381,PSF-00336,RHS-00170,2.0.0,2021-01-19T12:57:14.097Z
20,12:23:37,9/19/22,Auto gsw+F,LI-COR Default,,20,LCOR-311,11,0.435213,2.917266,0.378714,8.155461,1.690683,1.462976,3.793269,2.102586,14.574452,16.842915,37.78928,0.441786,PSF-00336_20220919122337,0,0,0,102.115273,201.927032,0.494296,0.5,0.8,308.264587,45.4,39.29,27.68,27.99,100.38,156.2,155.4,0.5,1559,4.064,18,178,259,,,,,,,,0:00:00,0000-00-00,0,0,0,0,0,12:22:47,9/19/22,-0.22,-0.001,0.001,0.009,-0.482,-0.584,1.617,1,150,0.005,2,0,mpf,7000,500,5,2,300,300,300,177.541489,25,-17.544518,172.967072,176.863129,-3.896057,2.449913,2.446267,1.657184,0.927695,0.245189,0.003081,0.287524,1.526814,102.115273,0.000618,2.386067,-0.000044,1,2.373562,-0.000053,1,0.600878,0.600715,0.106777,0,PSF-00336_20220919122337,PFA-00364,PSA-00381,PSF-00336,RHS-00170,2.0.0,2021-01-19T12:57:14.097Z
21,12:24:24,9/19/22,Auto gsw+F,LI-COR Default,,21,LCOR-492,10,0.43864,2.918467,0.381327,8.330729,1.672741,1.440311,3.805919,2.133178,14.348228,16.663671,37.914173,0.441786,PSF-00336_20220919122424,0,0,0,150.299194,245.503525,0.387792,0.5,0.8,292.056488,44.78,38.55,27.73,28.05,100.38,156.3,155.1,0.8,1883,4.06,30,-172,82,,,,,,,,0:00:00,0000-00-00,0,0,0,0,0,12:22:47,9/19/22,-0.22,0,0.001,0.022,-3.591,-4.881,2.921,1,150,0.005,2,0,mpf,7000,500,5,2,300,300,300,224.803085,25,-15.995667,219.633224,222.652298,-3.019073,2.448866,2.445379,1.658457,0.927098,0.244651,0.0031,0.290524,1.821646,150.299194,0.000622,2.386067,-0.000044,1,2.373562,-0.000053,1,0.600878,0.600715,0.106777,0,PSF-00336_20220919122424,PFA-00364,PSA-00381,PSF-00336,RHS-00170,2.0.0,2021-01-19T12:57:14.097Z
22,12:27:57,9/19/22,Auto gsw+F,LI-COR Default,,22,LCOR-032,12,0.339086,2.916021,0.303763,5.994431,1.552515,1.384794,3.48317,1.930655,13.799329,15.470658,34.709438,0.441786,PSF-00336_20220919122757,0,0,0,118.633392,301.763,0.606866,0.5,0.8,269.424622,41.54,37.05,27.74,26.54,100.35,156,153.3,1.7,1110,4.058,3,156,76,,,,,,,,0:00:00,0000-00-00,0,0,0,0,0,12:22:47,9/19/22,-0.22,0.001,0.003,0.013,-0.512,-1.048,-3.472,1,150,0.005,2,0,mpf,7000,500,5,2,300,300,300,275.952087,25,-17.805395,276.07547,276.326416,-0.250946,2.446728,2.440828,1.655868,0.922593,0.244564,-0.015202,0.303871,1.117676,118.633392,0.00062,2.386067,-0.000044,1,2.373562,-0.000053,1,0.600878,0.600715,0.106777,0,PSF-00336_20220919122757,PFA-00364,PSA-00381,PSF-00336,RHS-00170,2.0.0,2021-01-19T12:57:14.097Z
23,12:29:11,9/19/22,Auto gsw+F,LI-COR Default,,23,LCOR-446,12,0.15216,2.917694,0.144618,3.270018,1.462785,1.371311,3.674225,2.21144,13.662459,14.573815,36.606533,0.441786,PSF-00336_20220919122911,0,0,0,108.986374,291.41217,0.626006,0.5,0.8,266.672607,39.3,36.84,27.67,27.45,100.37,156.2,154.7,1,1065,4.057,15,-159,112,,,,,,,,0:00:00,0000-00-00,0,0,0,0,0,12:22:47,9/19/22,-0.22,0.001,0,0.008,-0.046,-0.467,-0.22,1,150,0.005,2,0,mpf,7000,500,5,2,300,300,300,258.098602,25,-23.427961,254.949692,257.943237,-2.993546,2.446451,2.437675,1.657637,0.926041,0.245269,-0.00342,0.307731,1.076757,108.986374,0.000628,2.386067,-0.000044,1,2.373562,-0.000053,1,0.600878,0.600715,0.106777,0,PSF-00336_20220919122911,PFA-00364,PSA-00381,PSF-00336,RHS-00170,2.0.0,2021-01-19T12:57:14.097Z
24,12:30:02,9/19/22,Auto gsw+F,LI-COR Default,,24,LCOR-313,10,0.133169,2.918621,0.127358,3.448038,1.477034,1.38066,4.11881,2.641776,13.754953,14.715085,41.034016,0.441786,PSF-00336_20220919123002,0,0,0,114.518883,167.320755,0.315573,0.5,0.8,226.872269,39.78,37.19,27.63,29.41,100.38,156.3,154.7,1.1,1797,4.056,26,174,77,,,,,,,,0:00:00,0000-00-00,0,0,0,0,0,12:22:47,9/19/22,-0.22,-0.001,0,-9999,-2.001,-4.067,-9999,1,150,0.005,2,0,mpf,7000,500,5,2,300,300,300,159.410828,25,-5.80226,158.722046,159.031708,-0.309662,2.446946,2.438366,1.65862,0.925959,0.245674,0.021063,0.310946,1.743763,114.518883,0.000613,2.386067,-0.000044,1,2.373562,-0.000053,1,0.600878,0.600715,0.106777,0,PSF-00336_20220919123002,PFA-00364,PSA-00381,PSF-00336,RHS-00170,2.0.0,2021-01-19T12:57:14.097Z
25,12:30:58,9/19/22,Auto gsw+F,LI-COR Default,,25,LCOR-190,15,0.129878,2.91638,0.124341,3.881215,1.475839,1.367179,4.515106,3.039267,13.622338,14.705009,44.987759,0.441786,PSF-00336_20220919123058,0,0,0,97.371338,157.157654,0.380423,0.5,0.8,278.428314,39.71,36.79,27.64,31.01,100.36,156,155,0.6,1830,4.054,23,163,77,,,,,,,,0:00:00,0000-00-00,0,0,0,0,0,12:22:47,9/19/22,-0.22,0.002,0.003,-9999,-2.385,-2.483,-9999,1,150,0.005,2,0,mpf,7000,500,5,2,300,300,300,141.629929,25,-11.584454,138.066177,140.608231,-2.542053,2.446372,2.43826,1.656247,0.926896,0.245505,0.040826,0.314812,1.773296,97.371338,0.000606,2.386067,-0.000044,1,2.373562,-0.000053,1,0.600878,0.600715,0.106777,0,PSF-00336_20220919123058,PFA-00364,PSA-00381,PSF-00336,RHS-00170,2.0.0,2021-01-19T12:57:14.097Z
26,12:31:32,9/19/22,Auto gsw+F,LI-COR Default,,26,LCOR-112,10,0.217202,2.917861,0.202154,5.173545,1.509018,1.36438,4.007197,2.498179,13.59306,15.034066,39.922958,0.441786,PSF-00336_20220919123132,0,0,0,101.935745,148.795929,0.314929,0.5,0.8,227.538986,40.55,36.67,27.66,28.94,100.37,156.2,154.2,1.3,1806,4.053,35,166,92,,,,,,,,0:00:00,0000-00-00,0,0,0,0,0,12:22:47,9/19/22,-0.22,0.001,0.003,-9999,-1.685,-1.553,-9999,1,150,0.005,2,0,mpf,7000,500,5,2,300,300,300,138.660187,25,-7.934895,135.668991,137.460236,-1.791245,2.446197,2.439453,1.657815,0.924845,0.245302,0.014746,0.317086,1.751929,101.935745,0.000626,2.386067,-0.000044,1,2.373562,-0.000053,1,0.600878,0.600715,0.106777,0,PSF-00336_20220919123132,PFA-00364,PSA-00381,PSF-00336,RHS-00170,2.0.0,2021-01-19T12:57:14.097Z
27,12:32:46,9/19/22,Auto gsw+F,LI-COR Default,,27,LCOR-374,10,0.275498,2.916681,0.251722,5.070738,1.496295,1.354395,3.468043,1.971748,13.49486,14.908724,34.554741,0.441786,PSF-00336_20220919123246,0,0,0,119.980934,293.751892,0.591557,0.5,0.8,271.731964,40.05,36.25,27.73,26.46,100.36,156.1,150.3,3.7,1148,4.052,-14,-179,72,,,,,,,,0:00:00,0000-00-00,0,0,0,0,0,12:22:47,9/19/22,-0.22,0,0.003,0.012,-1.85,-2.954,-7.172,1,150,0.005,2,0,mpf,7000,500,5,2,300,300,300,268.439056,25,-17.610193,267.796051,268.594177,-0.798126,2.445593,2.438725,1.656566,0.915165,0.244641,-0.015986,0.321844,1.152718,119.980934,0.000609,2.386067,-0.000044,1,2.373562,-0.000053,1,0.600878,0.600715,0.106777,0,PSF-00336_20220919123246,PFA-00364,PSA-00381,PSF-00336,RHS-00170,2.0.0,2021-01-19T12:57:14.097Z
28,12:33:22,9/19/22,Auto gsw+F,LI-COR Default,,28,LCOR-521,15,0.079115,2.917455,0.077026,2.228609,1.441463,1.379096,4.263025,2.821561,13.739844,14.361209,42.472252,0.441786,PSF-00336_20220919123322,0,0,0,114.324692,175.296646,0.347822,0.5,0.8,247.603729,38.55,36.88,27.75,30.01,100.37,156.2,154.5,1.1,1780,4.051,23,-176,81,,,,,,,,0:00:00,0000-00-00,0,0,0,0,0,12:33:11,9/19/22,-0.2,0,-0.001,0.003,-1.666,-3.846,-10.809,1,150,0.005,2,0,mpf,7000,500,5,2,300,300,300,165.657883,25,-6.791956,165.545227,165.593735,-0.048508,2.446482,2.436551,1.657385,0.925494,0.244479,0.026966,0.323951,1.727705,114.324692,0.00061,2.386067,-0.000044,1,2.373562,-0.000053,1,0.600878,0.600715,0.106777,0,PSF-00336_20220919123322,PFA-00364,PSA-00381,PSF-00336,RHS-00170,2.0.0,2021-01-19T12:57:14.097Z
29,12:34:45,9/19/22,Auto gsw+F,LI-COR Default,,29,LCOR-232,10,0.179996,2.917368,0.169536,3.668009,1.444564,1.341918,3.561861,2.117297,13.370381,14.393108,35.489079,0.441786,PSF-00336_20220919123445,0,0,0,138.769272,297.888794,0.534157,0.5,0.8,285.403015,38.46,35.73,27.82,26.92,100.36,156.2,144.4,7.5,1336,4.048,-2,-178,99,,,,,,,,0:00:00,0000-00-00,0,0,0,0,0,12:33:11,9/19/22,-0.2,0,0.001,0.01,-0.506,-0.344,6.172,1,150,0.005,2,0,mpf,7000,500,5,2,300,300,300,271.725311,25,-18.717558,269.713989,271.149109,-1.43512,2.444826,2.436416,1.657292,0.900685,0.243766,-0.011666,0.328259,1.32339,138.769272,0.000619,2.386067,-0.000044,1,2.373562,-0.000053,1,0.600878,0.600715,0.106777,0,PSF-00336_20220919123445,PFA-00364,PSA-00381,PSF-00336,RHS-00170,2.0.0,2021-01-19T12:57:14.097Z
30,12:36:41,9/19/22,Auto gsw+F,LI-COR Default,,30,LCOR-315,15,0.1656,2.918084,0.156707,3.12624,1.398554,1.311092,3.35306,1.954506,13.065457,13.937037,33.414314,0.441786,PSF-00336_20220919123641,0,0,0,118.306519,320.529694,0.630903,0.5,0.8,258.672485,37.21,34.88,27.84,25.89,100.35,156.3,134.5,13.9,1025,4.045,-12,145,89,,,,,,,,0:00:00,0000-00-00,0,0,0,0,0,12:33:11,9/19/22,-0.2,0.003,0.004,-9999,0.889,1.804,-9999,1,150,0.005,2,0,mpf,7000,500,5,2,300,300,300,290.610901,25,-20.788164,290.634857,290.83197,-0.197113,2.443607,2.434617,1.658051,0.87672,0.243641,-0.024014,0.334915,1.040355,118.306519,0.000624,2.386067,-0.000044,1,2.373562,-0.000053,1,0.600878,0.600715,0.106777,0,PSF-00336_20220919123641,PFA-00364,PSA-00381,PSF-00336,RHS-00170,2.0.0,2021-01-19T12:57:14.097Z
31,12:38:26,9/19/22,Auto gsw+F,LI-COR Default,,31,LCOR-419,13,0.265696,2.916805,0.243514,5.538084,1.463049,1.30804,3.686888,2.223839,13.033611,14.578154,36.736992,0.441786,PSF-00336_20220919123826,0,0,0,136.597397,295.482025,0.537713,0.5,0.8,329.980652,39.38,35.21,27.64,27.51,100.36,156.1,155.3,0.5,1534,4.044,-15,170,115,,,,,,,,0:00:00,0000-00-00,0,0,0,0,0,12:33:11,9/19/22,-0.2,0,-0.001,-9999,1.927,4.635,-9999,1,150,0.005,2,0,mpf,7000,500,5,2,300,300,300,264.453278,25,-22.681812,259.323486,263.079041,-3.755554,2.444118,2.437771,1.656696,0.927646,0.24558,-0.002323,0.340525,1.504113,136.597397,0.000597,2.386067,-0.000044,1,2.373562,-0.000053,1,0.600878,0.600715,0.106777,0,PSF-00336_20220919123826,PFA-00364,PSA-00381,PSF-00336,RHS-00170,2.0.0,2021-01-19T12:57:14.097Z
32,12:39:20,9/19/22,Auto gsw+F,LI-COR Default,,32,LCOR-365,15,0.244205,2.91739,0.225342,4.893531,1.432642,1.295684,3.558037,2.125395,12.909395,14.273968,35.450089,0.441786,PSF-00336_20220919123920,0,0,0,117.344139,225.188812,0.478908,0.5,0.8,264.698029,38.71,35.01,27.57,26.9,100.37,156.2,155,0.7,1382,4.044,3,-178,146,,,,,,,,0:00:00,0000-00-00,0,0,0,0,0,12:33:11,9/19/22,-0.2,0,0.001,0.004,-1.644,-3.275,-11.64,1,150,0.005,2,0,mpf,7000,500,5,2,300,300,300,204.956177,25,-14.424925,202.963837,204.581528,-1.617691,2.443839,2.436822,1.657315,0.926802,0.246201,-0.008844,0.343695,1.365302,117.344139,0.000614,2.386067,-0.000044,1,2.373562,-0.000053,1,0.600878,0.600715,0.106777,0,PSF-00336_20220919123920,PFA-00364,PSA-00381,PSF-00336,RHS-00170,2.0.0,2021-01-19T12:57:14.097Z
33,12:40:11,9/19/22,Auto gsw+F,LI-COR Default,,33,LCOR-480,10,0.460071,2.917721,0.397407,7.561293,1.525795,1.314411,3.388823,1.863028,13.095073,15.201023,33.761787,0.441786,PSF-00336_20220919124011,0,0,0,135.262726,289.795258,0.533247,0.5,0.8,284.102203,41.37,35.64,27.51,26.07,100.37,156.2,147.9,5.3,1332,4.042,-10,179,104,,,,,,,,0:00:00,0000-00-00,0,0,0,0,0,12:33:11,9/19/22,-0.2,0.004,0.004,0.015,-2.425,-3.26,-0.778,1,150,0.005,2,0,mpf,7000,500,5,2,300,300,300,265.153534,25,-17.982355,262.316833,264.105865,-1.789032,2.444761,2.440625,1.657666,0.909243,0.246799,-0.017957,0.346564,1.319912,135.262726,0.000602,2.386067,-0.000044,1,2.373562,-0.000053,1,0.600878,0.600715,0.106777,0,PSF-00336_20220919124011,PFA-00364,PSA-00381,PSF-00336,RHS-00170,2.0.0,2021-01-19T12:57:14.097Z
34,12:41:04,9/19/22,Auto gsw+F,LI-COR Default,,34,LCOR-433,13,0.513736,2.916424,0.436794,8.527597,1.563009,1.324474,3.473343,1.910334,13.196213,15.572824,34.606163,0.441786,PSF-00336_20220919124104,0,0,0,113.919495,246.65097,0.538135,0.5,0.8,288.524872,42.48,35.99,27.47,26.49,100.37,156.1,155.5,0.4,1340,4.041,-5,-177,106,,,,,,,,0:00:00,0000-00-00,0,0,0,0,0,12:33:11,9/19/22,-0.2,0.002,0.004,0.016,1.076,1.126,2.198,1,150,0.005,2,0,mpf,7000,500,5,2,300,300,300,218.894363,25,-19.793909,214.705826,218.373611,-3.667786,2.445275,2.442191,1.656294,0.927935,0.247172,-0.012533,0.349488,1.327607,113.919495,0.000624,2.386067,-0.000044,1,2.373562,-0.000053,1,0.600878,0.600715,0.106777,0,PSF-00336_20220919124104,PFA-00364,PSA-00381,PSF-00336,RHS-00170,2.0.0,2021-01-19T12:57:14.097Z
35,12:41:56,9/19/22,Auto gsw+F,LI-COR Default,,35,LCOR-453,13,0.328959,2.917523,0.295626,7.010512,1.525401,1.329374,3.842168,2.316767,13.243477,15.19634,38.276424,0.441786,PSF-00336_20220919124156,0,0,0,110.558151,234.858582,0.529257,0.5,0.8,323.714844,41.46,36.14,27.47,28.21,100.38,156.2,155.6,0.4,1529,4.04,17,176,114,,,,,,,,0:00:00,0000-00-00,0,0,0,0,0,12:33:11,9/19/22,-0.2,-0.002,0,-9999,-0.11,0.088,-9999,1,150,0.005,2,0,mpf,7000,500,5,2,300,300,300,212.521439,25,-15.462965,211.463928,212.768372,-1.304443,2.445479,2.440764,1.657456,0.928241,0.247213,0.008276,0.35249,1.499483,110.558151,0.000624,2.386067,-0.000044,1,2.373562,-0.000053,1,0.600878,0.600715,0.106777,0,PSF-00336_20220919124156,PFA-00364,PSA-00381,PSF-00336,RHS-00170,2.0.0,2021-01-19T12:57:14.097Z
36,12:42:27,9/19/22,Auto gsw+F,LI-COR Default,,36,LCOR-223,10,0.35179,2.917323,0.313934,7.409238,1.602098,1.395019,3.906527,2.304429,13.895405,15.958065,38.911861,0.441786,PSF-00336_20220919124227,0,0,0,105.331421,182.80014,0.423789,0.5,0.8,282.382965,43.49,37.87,27.49,28.5,100.39,156.2,154.8,0.9,1666,4.039,31,-179,242,,,,,,,,0:00:00,0000-00-00,0,0,0,0,0,12:33:11,9/19/22,-0.2,0.001,0.004,0.014,-0.722,-2.101,-5.657,1,150,0.005,2,0,mpf,7000,500,5,2,300,300,300,169.798492,25,-9.044083,169.034241,169.879868,-0.845627,2.447941,2.443607,1.657245,0.926381,0.246974,0.011462,0.354336,1.624008,105.331421,0.000602,2.386067,-0.000044,1,2.373562,-0.000053,1,0.600878,0.600715,0.106777,0,PSF-00336_20220919124227,PFA-00364,PSA-00381,PSF-00336,RHS-00170,2.0.0,2021-01-19T12:57:14.097Z
37,12:43:20,9/19/22,Auto gsw+F,LI-COR Default,,37,LCOR-216,12,0.409319,2.916267,0.358939,8.176745,1.633572,1.404952,3.85777,2.224199,13.995981,16.27347,38.430706,0.441786,PSF-00336_20220919124320,0,0,0,144.876831,247.164261,0.413844,0.5,0.8,260.059143,44.14,37.96,27.57,28.28,100.38,156,155.5,0.4,1571,4.039,3,-148,79,,,,,,,,0:00:00,0000-00-00,0,0,0,0,0,12:33:11,9/19/22,-0.2,-0.005,-0.003,0.01,-1.91,-2.835,-2.644,1,150,0.005,2,0,mpf,7000,500,5,2,300,300,300,232.75029,25,-10.141414,232.133743,232.676346,-0.542603,2.448061,2.444503,1.656128,0.927999,0.246211,0.007877,0.357225,1.537642,144.876831,0.000599,2.386067,-0.000044,1,2.373562,-0.000053,1,0.600878,0.600715,0.106777,0,PSF-00336_20220919124320,PFA-00364,PSA-00381,PSF-00336,RHS-00170,2.0.0,2021-01-19T12:57:14.097Z
38,12:44:12,9/19/22,Auto gsw+F,LI-COR Default,,38,LCOR-159,12,0.282356,2.917802,0.257443,6.112337,1.580055,1.40928,3.89821,2.318155,14.03994,15.741289,38.835884,0.441786,PSF-00336_20220919124412,0,0,0,107.82373,224.248001,0.519176,0.5,0.8,300.278473,42.43,37.85,27.68,28.46,100.38,156.2,154.8,0.9,1446,4.038,-15,173,116,,,,,,,,0:00:00,0000-00-00,0,0,0,0,0,12:43:56,9/19/22,-0.17,0.004,0.004,-9999,-0.624,0.683,-9999,1,150,0.005,2,0,mpf,7000,500,5,2,300,300,300,198.488831,25,-18.865328,193.181641,197.297211,-4.11557,2.447875,2.44205,1.657752,0.926244,0.24519,0.008788,0.360133,1.423736,107.82373,0.000626,2.386067,-0.000044,1,2.373562,-0.000053,1,0.600878,0.600715,0.106777,0,PSF-00336_20220919124412,PFA-00364,PSA-00381,PSF-00336,RHS-00170,2.0.0,2021-01-19T12:57:14.097Z
39,12:44:58,9/19/22,Auto gsw+F,LI-COR Default,,39,LCOR-426,12,0.197809,2.915473,0.185241,4.931146,1.529529,1.391433,4.126284,2.596754,13.862173,15.237962,41.108166,0.441786,PSF-00336_20220919124458,0,0,0,112.438202,188.938416,0.404895,0.5,0.8,256.193542,40.89,37.2,27.75,29.44,100.38,155.9,149.6,4.1,1582,4.036,-18,-120,55,,,,,,,,0:00:00,0000-00-00,0,0,0,0,0,12:43:56,9/19/22,-0.17,0.002,0.003,-9999,-1.329,-2.708,-9999,1,150,0.005,2,0,mpf,7000,500,5,2,300,300,300,174.48056,25,-10.588373,172.103043,173.811981,-1.708939,2.446943,2.439859,1.65529,0.913328,0.244452,0.019915,0.362552,1.547528,112.438202,0.000615,2.386067,-0.000044,1,2.373562,-0.000053,1,0.600878,0.600715,0.106777,0,PSF-00336_20220919124458,PFA-00364,PSA-00381,PSF-00336,RHS-00170,2.0.0,2021-01-19T12:57:14.097Z
40,12:46:09,9/19/22,Auto gsw+F,LI-COR Default,,40,LCOR-113,12,0.319511,2.917505,0.287973,6.608819,1.567197,1.382512,3.808742,2.241544,13.775353,15.615562,37.950317,0.441786,PSF-00336_20220919124609,0,0,0,116.496918,255.888184,0.544735,0.5,0.8,345.371155,41.89,36.95,27.76,28.06,100.36,156.2,136.9,12.3,1585,4.032,4,148,81,,,,,,,,0:00:00,0000-00-00,0,0,0,0,0,12:43:56,9/19/22,-0.17,0.003,0.002,-9999,1.204,3.728,-9999,1,150,0.005,2,0,mpf,7000,500,5,2,300,300,300,225.488312,25,-21.722218,221.009735,224.856064,-3.846329,2.446589,2.441266,1.657437,0.882558,0.24441,0.002952,0.365999,1.550433,116.496918,0.000636,2.386067,-0.000044,1,2.373562,-0.000053,1,0.600878,0.600715,0.106777,0,PSF-00336_20220919124609,PFA-00364,PSA-00381,PSF-00336,RHS-00170,2.0.0,2021-01-19T12:57:14.097Z
42,12:50:28,9/19/22,Auto gsw+F,LI-COR Default,,42,LCOR-505,15,0.212786,2.917672,0.198322,5.07048,1.464831,1.323001,3.9615,2.496668,13.181828,14.594969,39.470734,0.441786,PSF-00336_20220919125028,0,0,0,132.164597,210.209564,0.371272,0.5,0.8,277.844421,37.56,33.92,28.47,28.74,100.37,156.2,153.8,1.5,1871,4.03,-17,164,125,,,,,,,,0:00:00,0000-00-00,0,0,0,0,0,12:43:56,9/19/22,-0.17,-0.001,-0.001,0.002,-1.907,-3.697,-10.305,1,150,0.005,2,0,mpf,7000,500,5,2,300,300,300,196.539047,25,-9.865941,195.47403,196.115189,-0.641159,2.442101,2.43495,1.657614,0.92381,0.237594,0.002472,0.378318,1.810788,132.164597,0.000605,2.386067,-0.000044,1,2.373562,-0.000053,1,0.600878,0.600715,0.106777,0,PSF-00336_20220919125028,PFA-00364,PSA-00381,PSF-00336,RHS-00170,2.0.0,2021-01-19T12:57:14.097Z
43,12:51:17,9/19/22,Auto gsw+F,LI-COR Default,,43,LCOR-153,13,0.273831,2.918249,0.25034,6.132166,1.466984,1.295531,3.860331,2.393347,12.907547,14.615765,38.461006,0.441786,PSF-00336_20220919125117,0,0,0,99.009995,232.858459,0.574806,0.5,0.8,369.29245,37.57,33.18,28.49,28.29,100.37,156.3,145.1,7.1,1606,4.029,-45,175,117,,,,,,,,0:00:00,0000-00-00,0,0,0,0,0,12:43:56,9/19/22,-0.17,0.001,0.003,-9999,0.307,0.848,-9999,1,150,0.005,2,0,mpf,7000,500,5,2,300,300,300,199.620361,25,-23.216339,196.426041,199.691864,-3.265823,2.441027,2.434967,1.658226,0.902376,0.23742,-0.003181,0.380545,1.569669,99.009995,0.00062,2.386067,-0.000044,1,2.373562,-0.000053,1,0.600878,0.600715,0.106777,0,PSF-00336_20220919125117,PFA-00364,PSA-00381,PSF-00336,RHS-00170,2.0.0,2021-01-19T12:57:14.097Z
44,12:52:02,9/19/22,Auto gsw+F,LI-COR Default,,44,LCOR-336,12,0.235949,2.918427,0.2183,5.187495,1.470723,1.325707,3.793291,2.322567,13.208171,14.652978,37.79298,0.441786,PSF-00336_20220919125202,0,0,0,153.213852,303.949768,0.495924,0.5,0.8,281.563019,37.62,33.91,28.51,27.99,100.37,156.3,146.3,6.4,1419,4.028,-34,-165,110,,,,,,,,0:00:00,0000-00-00,0,0,0,0,0,12:43:56,9/19/22,-0.17,0.002,0.002,0.006,-0.431,-3.374,-12.225,1,150,0.005,2,0,mpf,7000,500,5,2,300,300,300,283.833862,25,-13.842966,283.917908,284.173859,-0.255951,2.442082,2.435035,1.658415,0.905278,0.237226,-0.007082,0.382551,1.399554,153.213852,0.000618,2.386067,-0.000044,1,2.373562,-0.000053,1,0.600878,0.600715,0.106777,0,PSF-00336_20220919125202,PFA-00364,PSA-00381,PSF-00336,RHS-00170,2.0.0,2021-01-19T12:57:14.097Z
45,12:52:56,9/19/22,Auto gsw+F,LI-COR Default,,45,LCOR-412,11,0.42313,2.916432,0.369518,8.253469,1.565869,1.334979,3.748601,2.182733,13.299119,15.599256,37.343739,0.441786,PSF-00336_20220919125256,0,0,0,120.79847,260.274292,0.53588,0.5,0.8,350.529541,40.03,34.13,28.52,27.79,100.38,156.1,150.1,3.8,1635,4.027,-12,171,117,,,,,,,,0:00:00,0000-00-00,0,0,0,0,0,12:43:56,9/19/22,-0.17,0.002,0.003,0.01,-0.96,-1.017,1.726,1,150,0.005,2,0,mpf,7000,500,5,2,300,300,300,231.668121,25,-20.05661,229.351044,231.621643,-2.270599,2.442388,2.438462,1.656302,0.914687,0.237114,-0.009684,0.385083,1.596207,120.79847,0.000609,2.386067,-0.000044,1,2.373562,-0.000053,1,0.600878,0.600715,0.106777,0,PSF-00336_20220919125256,PFA-00364,PSA-00381,PSF-00336,RHS-00170,2.0.0,2021-01-19T12:57:14.097Z
46,12:53:38,9/19/22,Auto gsw+F,LI-COR Default,,46,LCOR-509,12,0.125359,2.9178,0.120195,3.077821,1.438868,1.352747,3.940483,2.501615,13.475924,14.333853,39.254681,0.441786,PSF-00336_20220919125338,0,0,0,132.415649,264.40332,0.499191,0.5,0.8,237.335205,36.78,34.58,28.52,28.65,100.38,156.2,153.8,1.5,1189,4.027,-11,-173,109,,,,,,,,0:00:00,0000-00-00,0,0,0,0,0,12:43:56,9/19/22,-0.17,0.001,0.001,0,-0.581,-1.333,-10.687,1,150,0.005,2,0,mpf,7000,500,5,2,300,300,300,248.281357,25,-11.099183,248.879669,248.54715,0.33252,2.443033,2.433816,1.65775,0.923821,0.237084,0.000687,0.386874,1.189354,132.415649,0.000615,2.386067,-0.000044,1,2.373562,-0.000053,1,0.600878,0.600715,0.106777,0,PSF-00336_20220919125338,PFA-00364,PSA-00381,PSF-00336,RHS-00170,2.0.0,2021-01-19T12:57:14.097Z
48,12:55:19,9/19/22,Auto gsw+F,LI-COR Default,,48,LCOR-549,12,0.32281,2.917089,0.290647,6.705441,1.631268,1.443889,3.883715,2.252446,14.38287,16.249392,38.686462,0.441786,PSF-00336_20220919125519,0,0,0,138.141632,276.646301,0.500656,0.5,0.8,281.833252,41.66,36.88,28.54,28.4,100.39,156.1,152.1,2.6,1407,4.024,-5,174,109,,,,,,,,0:00:00,0000-00-00,0,0,0,0,0,12:54:14,9/19/22,-0.13,-0.004,0.001,0.019,-1.655,-2.262,4.057,1,150,0.005,2,0,mpf,7000,500,5,2,300,300,300,252.633331,25,-17.489788,249.341721,251.660583,-2.318863,2.446318,2.440704,1.656996,0.919464,0.236953,-0.002527,0.391103,1.388564,138.141632,0.00061,2.386067,-0.000044,1,2.373562,-0.000053,1,0.600878,0.600715,0.106777,0,PSF-00336_20220919125519,PFA-00364,PSA-00381,PSF-00336,RHS-00170,2.0.0,2021-01-19T12:57:14.097Z
49,12:56:04,9/19/22,Auto gsw+F,LI-COR Default,,49,LCOR-466,10,0.350949,2.918432,0.313277,7.826838,1.756585,1.538346,4.190765,2.434179,15.32156,17.495174,41.739025,0.441786,PSF-00336_20220919125604,0,0,0,118.04187,193.803329,0.390919,0.5,0.8,271.687622,44.86,39.28,28.54,29.71,100.4,156.3,154.8,1,1737,4.023,15,-171,81,,,,,,,,0:00:00,0000-00-00,0,0,0,0,0,12:54:14,9/19/22,-0.13,-0.001,-0.001,0.01,-0.936,-0.338,-5.454,1,150,0.005,2,0,mpf,7000,500,5,2,300,300,300,181.805847,25,-8.441144,181.261536,181.7444,-0.482864,2.449722,2.445179,1.658419,0.926332,0.236936,0.013577,0.393089,1.689285,118.04187,0.000597,2.386067,-0.000044,1,2.373562,-0.000053,1,0.600878,0.600715,0.106777,0,PSF-00336_20220919125604,PFA-00364,PSA-00381,PSF-00336,RHS-00170,2.0.0,2021-01-19T12:57:14.097Z
50,12:56:36,9/19/22,Auto gsw+F,LI-COR Default,,50,LCOR-547,10,0.395146,2.917126,0.348006,8.995712,1.663674,1.412343,4.183526,2.519852,14.066317,16.569469,41.666092,0.441786,PSF-00336_20220919125636,0,0,0,92.244385,146.331863,0.369622,0.5,0.8,280.479614,42.43,36.02,28.56,29.68,100.41,156.1,154.7,0.9,1897,4.023,45,-163,91,,,,,,,,0:00:00,0000-00-00,0,0,0,0,0,12:54:14,9/19/22,-0.13,0,0,0.009,-0.555,-1.271,-1.658,1,150,0.005,2,0,mpf,7000,500,5,2,300,300,300,132.475021,25,-10.136853,129.465225,131.850464,-2.385239,2.445099,2.441785,1.657035,0.925943,0.236744,0.012953,0.394359,1.834629,92.244385,0.000621,2.386067,-0.000044,1,2.373562,-0.000053,1,0.600878,0.600715,0.106777,0,PSF-00336_20220919125636,PFA-00364,PSA-00381,PSF-00336,RHS-00170,2.0.0,2021-01-19T12:57:14.097Z
51,12:57:30,9/19/22,Auto gsw+F,LI-COR Default,,51,LCOR-598,12,0.271791,2.915098,0.248612,6.235313,1.583861,1.409255,4.031379,2.447518,14.037244,15.776455,40.155582,0.441786,PSF-00336_20220919125730,0,0,0,97.779037,211.253494,0.537148,0.5,0.8,310.600464,40.28,35.84,28.61,29.04,100.39,155.9,138.4,11.2,1446,4.021,5,152,75,,,,,,,,0:00:00,0000-00-00,0,0,0,0,0,12:54:14,9/19/22,-0.13,0.002,0.005,-9999,-1.041,-2.147,-9999,1,150,0.005,2,0,mpf,7000,500,5,2,300,300,300,185.345642,25,-18.431139,181.478973,184.922974,-3.444,2.444827,2.438736,1.654895,0.885952,0.236272,0.004438,0.396577,1.423429,97.779037,0.000622,2.386067,-0.000044,1,2.373562,-0.000053,1,0.600878,0.600715,0.106777,0,PSF-00336_20220919125730,PFA-00364,PSA-00381,PSF-00336,RHS-00170,2.0.0,2021-01-19T12:57:14.097Z
52,12:58:27,9/19/22,Auto gsw+F,LI-COR Default,,52,LCOR-464,15,0.393966,2.918711,0.347113,8.434435,1.654674,1.419366,4.024717,2.370043,14.140352,16.484596,40.096008,0.441786,PSF-00336_20220919125827,0,0,0,96.601364,241.373154,0.599784,0.5,0.8,285.703308,41.95,35.98,28.67,29.01,100.38,156.3,153.8,1.6,1191,4.02,0,142,75,,,,,,,,0:00:00,0000-00-00,0,0,0,0,0,12:54:14,9/19/22,-0.13,0,0.005,-9999,0.068,0.256,-9999,1,150,0.005,2,0,mpf,7000,500,5,2,300,300,300,205.985428,25,-24.606474,203.109024,206.220627,-3.111603,2.445021,2.441079,1.658717,0.923715,0.235764,0.003421,0.399101,1.191411,96.601364,0.000631,2.386067,-0.000044,1,2.373562,-0.000053,1,0.600878,0.600715,0.106777,0,PSF-00336_20220919125827,PFA-00364,PSA-00381,PSF-00336,RHS-00170,2.0.0,2021-01-19T12:57:14.097Z
53,12:59:04,9/19/22,Auto gsw+F,LI-COR Default,,53,LCOR-555,8,0.406844,2.916111,0.357032,8.763482,1.718355,1.473456,4.111268,2.392913,14.675236,17.114363,40.947147,0.441786,PSF-00336_20220919125904,0,0,0,99.557159,181.462952,0.451364,0.5,0.8,303.944763,43.48,37.29,28.7,29.38,100.4,156,154.6,0.9,1683,4.019,-5,-167,90,,,,,,,,0:00:00,0000-00-00,0,0,0,0,0,12:54:14,9/19/22,-0.13,0.004,0.004,-9999,-0.922,-0.929,-9999,1,150,0.005,2,0,mpf,7000,500,5,2,300,300,300,158.066864,25,-17.70141,150.930756,156.174911,-5.244156,2.446868,2.443223,1.655963,0.925784,0.235468,0.007551,0.400572,1.640091,99.557159,0.000629,2.386067,-0.000044,1,2.373562,-0.000053,1,0.600878,0.600715,0.106777,0,PSF-00336_20220919125904,PFA-00364,PSA-00381,PSF-00336,RHS-00170,2.0.0,2021-01-19T12:57:14.097Z
54,13:00:17,9/19/22,Auto gsw+F,LI-COR Default,,54,LCOR-189,15,0.341961,2.916843,0.306077,7.407202,1.59769,1.390604,3.959756,2.362065,13.852983,15.915945,39.446476,0.441786,PSF-00336_20220919130017,0,0,0,190.624954,287.949249,0.337991,0.5,0.8,209.856476,40.3,35.08,28.75,28.73,100.38,156.1,154.7,0.9,1552,4.018,10,175,79,,,,,,,,0:00:00,0000-00-00,0,0,0,0,0,12:54:14,9/19/22,-0.13,-0.003,-0.001,0.008,-1.826,-4.146,-12.549,1,150,0.005,2,0,mpf,7000,500,5,2,300,300,300,277.344696,25,-7.38851,278.908264,277.394104,1.51416,2.443709,2.438735,1.656736,0.926155,0.234962,-0.001072,0.403459,1.520551,190.624954,0.000615,2.386067,-0.000044,1,2.373562,-0.000053,1,0.600878,0.600715,0.106777,0,PSF-00336_20220919130017,PFA-00364,PSA-00381,PSF-00336,RHS-00170,2.0.0,2021-01-19T12:57:14.097Z
55,13:01:17,9/19/22,Auto gsw+F,LI-COR Default,,55,LCOR-447,12,0.399124,2.916842,0.351083,7.869654,1.581943,1.361882,3.772155,2.190213,13.566251,15.758362,37.575951,0.441786,PSF-00336_20220919130117,0,0,0,112.009766,203.752151,0.450265,0.5,0.8,247.564133,39.99,34.43,28.71,27.9,100.39,156.1,153.8,1.5,1375,4.016,1,-147,81,,,,,,,,0:00:00,0000-00-00,0,0,0,0,0,12:54:14,9/19/22,-0.13,-0.001,-0.002,0.017,-1.854,-3.127,1.313,1,150,0.005,2,0,mpf,7000,500,5,2,300,300,300,186.141724,25,-13.087696,181.913498,185.055222,-3.141724,2.442784,2.438305,1.656735,0.923764,0.235311,-0.010746,0.405809,1.358716,112.009766,0.000632,2.386067,-0.000044,1,2.373562,-0.000053,1,0.600878,0.600715,0.106777,0,PSF-00336_20220919130117,PFA-00364,PSA-00381,PSF-00336,RHS-00170,2.0.0,2021-01-19T12:57:14.097Z
56,13:02:43,9/19/22,Auto gsw+F,LI-COR Default,,56,LCOR-456,12,0.596477,2.916261,0.495193,10.567334,1.710102,1.414869,3.79353,2.083427,14.094738,17.035818,37.790653,0.441786,PSF-00336_20220919130243,0,0,0,108.818649,261.026733,0.583113,0.5,0.8,212.067596,43.41,35.92,28.64,27.99,100.38,156,154.6,0.9,909,4.015,6,152,79,,,,,,,,0:00:00,0000-00-00,0,0,0,0,0,12:54:14,9/19/22,-0.13,0.002,0.005,0.018,0.343,2.52,4.261,1,150,0.005,2,0,mpf,7000,500,5,2,300,300,300,222.302551,25,-28.116472,213.967682,220.859863,-6.892181,2.444933,2.443139,1.656121,0.925771,0.235986,-0.00869,0.408979,0.934881,108.818649,0.000612,2.386067,-0.000044,1,2.373562,-0.000053,1,0.600878,0.600715,0.106777,0,PSF-00336_20220919130243,PFA-00364,PSA-00381,PSF-00336,RHS-00170,2.0.0,2021-01-19T12:57:14.097Z
58,13:04:19,9/19/22,Auto gsw+F,LI-COR Default,,58,LCOR-602,15,0.424159,2.918957,0.370343,7.860961,1.61722,1.397864,3.691547,2.074327,13.925797,16.111055,36.775906,0.441786,PSF-00336_20220919130419,0,0,0,99.738121,275.599731,0.638105,0.5,0.8,161.563202,41.17,35.59,28.59,27.53,100.38,156.4,154.9,0.9,633,4.013,-15,139,90,,,,,,,,0:00:00,0000-00-00,0,0,0,0,0,12:54:14,9/19/22,-0.13,0.002,0.004,0.035,-0.183,0.124,0.734,1,150,0.005,2,0,mpf,7000,500,5,2,300,300,300,239.107483,25,-25.255932,237.221359,239.519394,-2.298035,2.444473,2.440005,1.658978,0.92664,0.236452,-0.013713,0.413017,0.683296,99.738121,0.000633,2.386067,-0.000044,1,2.373562,-0.000053,1,0.600878,0.600715,0.106777,0,PSF-00336_20220919130419,PFA-00364,PSA-00381,PSF-00336,RHS-00170,2.0.0,2021-01-19T12:57:14.097Z
60,13:06:04,9/19/22,Auto gsw+F,LI-COR Default,,60,LCOR-615,12,0.27456,2.916925,0.25094,5.516328,1.633813,1.479636,3.781278,2.147465,14.737922,16.273603,37.663441,0.441786,PSF-00336_20220919130604,0,0,0,109.298584,264.550842,0.586852,0.5,0.8,272.194458,41.73,37.8,28.54,27.94,100.4,156.1,153.2,1.8,1160,4.011,0,163,83,,,,,,,,0:00:00,0000-00-00,0,0,0,0,0,13:04:53,9/19/22,-0.25,-0.001,-0.004,-9999,0.952,2.233,-9999,1,150,0.005,2,0,mpf,7000,500,5,2,300,300,300,237.902649,25,-18.717558,235.17215,237.811157,-2.639008,2.447623,2.440969,1.656824,0.922376,0.236981,-0.00806,0.416768,1.162898,109.298584,0.000613,2.386067,-0.000044,1,2.373562,-0.000053,1,0.600878,0.600715,0.106777,0,PSF-00336_20220919130604,PFA-00364,PSA-00381,PSF-00336,RHS-00170,2.0.0,2021-01-19T12:57:14.097Z
61,13:06:56,9/19/22,Auto gsw+F,LI-COR Default,,61,LCOR-460,12,0.488094,2.917815,0.418146,9.539353,1.638031,1.371623,3.865547,2.227516,13.662639,16.316307,38.504436,0.441786,PSF-00336_20220919130656,0,0,0,88.727119,155.990372,0.431201,0.5,0.8,29.677511,41.84,35.04,28.53,28.32,100.39,156.2,152.4,2.4,172,4.009,2,163,89,,,,,,,,0:00:00,0000-00-00,0,0,0,0,0,13:04:53,9/19/22,-0.25,0.003,0.002,0.009,-0.592,-1.135,-3.644,1,150,0.005,2,0,mpf,7000,500,5,2,300,300,300,143.749588,25,-8.484015,143.064026,143.870209,-0.806183,2.443694,2.441123,1.657766,0.920419,0.236989,-0.003461,0.418613,0.263492,88.727119,0.000615,2.386067,-0.000044,1,2.373562,-0.000053,1,0.600878,0.600715,0.106777,0,PSF-00336_20220919130656,PFA-00364,PSA-00381,PSF-00336,RHS-00170,2.0.0,2021-01-19T12:57:14.097Z
63,13:08:20,9/19/22,Auto gsw+F,LI-COR Default,,63,LCOR-477,10,0.405425,2.917165,0.355955,8.445341,1.593029,1.356951,3.909593,2.316564,13.516798,15.868406,38.94405,0.441786,PSF-00336_20220919130820,0,0,0,112.904907,193.823593,0.417486,0.5,0.8,273.236084,40.84,34.79,28.47,28.51,100.39,156.1,155.3,0.5,1636,4.008,1,-147,81,,,,,,,,0:00:00,0000-00-00,0,0,0,0,0,13:04:53,9/19/22,-0.25,0.002,0.003,0.009,-1.436,-2.683,-6.197,1,150,0.005,2,0,mpf,7000,500,5,2,300,300,300,180.65036,25,-9.293103,179.626114,180.547577,-0.921463,2.443346,2.439722,1.657077,0.927672,0.237566,-0.000337,0.421564,1.597027,112.904907,0.000638,2.386067,-0.000044,1,2.373562,-0.000053,1,0.600878,0.600715,0.106777,0,PSF-00336_20220919130820,PFA-00364,PSA-00381,PSF-00336,RHS-00170,2.0.0,2021-01-19T12:57:14.097Z
65,13:09:33,9/19/22,Auto gsw+F,LI-COR Default,,65,LCOR-531,15,0.538239,2.918605,0.454434,9.100726,1.588889,1.334799,3.54768,1.958791,13.297688,15.829016,35.343113,0.441786,PSF-00336_20220919130933,0,0,0,122.061249,302.379395,0.596331,0.5,0.8,271.063446,40.79,34.26,28.45,26.85,100.38,156.3,155.6,0.5,1136,4.006,-16,161,87,,,,,,,,0:00:00,0000-00-00,0,0,0,0,0,13:04:53,9/19/22,-0.25,0.002,0.002,-9999,0.499,-0.627,-9999,1,150,0.005,2,0,mpf,7000,500,5,2,300,300,300,264.550201,25,-27.532688,257.351166,263.046509,-5.695343,2.442596,2.439651,1.658604,0.928323,0.237775,-0.020121,0.423807,1.141792,122.061249,0.000617,2.386067,-0.000044,1,2.373562,-0.000053,1,0.600878,0.600715,0.106777,0,PSF-00336_20220919130933,PFA-00364,PSA-00381,PSF-00336,RHS-00170,2.0.0,2021-01-19T12:57:14.097Z
66,13:10:29,9/19/22,Auto gsw+F,LI-COR Default,,66,LCOR-586,12,0.193717,2.918305,0.181659,4.573567,1.481397,1.353531,3.940401,2.459004,13.483974,14.757778,39.254547,0.441786,PSF-00336_20220919131029,0,0,0,132.918472,274.474701,0.515735,0.5,0.8,244.071167,38.06,34.77,28.44,28.65,100.38,156.3,151.3,3.2,1183,4.004,-14,-114,47,,,,,,,,0:00:00,0000-00-00,0,0,0,0,0,13:04:53,9/19/22,-0.25,0.001,0,-9999,-1.788,-3.874,-9999,1,150,0.005,2,0,mpf,7000,500,5,2,300,300,300,254.896759,25,-13.786411,253.180862,254.779587,-1.598724,2.44333,2.435774,1.658285,0.917705,0.237902,0.001748,0.425653,1.184366,132.918472,0.000619,2.386067,-0.000044,1,2.373562,-0.000053,1,0.600878,0.600715,0.106777,0,PSF-00336_20220919131029,PFA-00364,PSA-00381,PSF-00336,RHS-00170,2.0.0,2021-01-19T12:57:14.097Z
67,13:11:26,9/19/22,Auto gsw+F,LI-COR Default,,67,LCOR-578,14,0.438389,2.916557,0.381105,9.092875,1.637294,1.38312,3.965565,2.328272,13.778152,16.310143,39.503563,0.441786,PSF-00336_20220919131126,0,0,0,109.118698,185.611481,0.412112,0.5,0.8,268.233826,41.97,35.46,28.47,28.76,100.39,156.1,137.6,11.8,1627,4.004,1,164,92,,,,,,,,0:00:00,0000-00-00,0,0,0,0,0,13:04:53,9/19/22,-0.25,0.002,0,-9999,-0.061,-0.749,-9999,1,150,0.005,2,0,mpf,7000,500,5,2,300,300,300,172.371262,25,-9.180907,171.745056,172.495743,-0.750687,2.444308,2.441321,1.656434,0.884145,0.237566,0.002652,0.427839,1.588821,109.118698,0.000594,2.386067,-0.000044,1,2.373562,-0.000053,1,0.600878,0.600715,0.106777,0,PSF-00336_20220919131126,PFA-00364,PSA-00381,PSF-00336,RHS-00170,2.0.0,2021-01-19T12:57:14.097Z
68,13:12:03,9/19/22,Auto gsw+F,LI-COR Default,,68,LCOR-056,9,0.379752,2.918812,0.336032,8.109598,1.580939,1.354515,3.937083,2.356143,13.492664,15.748132,39.218269,0.441786,PSF-00336_20220919131203,0,0,0,108.576538,165.896225,0.345515,0.5,0.8,235.955856,40.52,34.71,28.48,28.63,100.39,156.3,154.7,1.1,1707,4.004,3,-157,84,,,,,,,,0:00:00,0000-00-00,0,0,0,0,0,13:04:53,9/19/22,-0.25,-0.005,-0.003,0.011,-0.975,-2.348,-5.887,1,150,0.005,2,0,mpf,7000,500,5,2,300,300,300,155.901794,25,-7.238003,154.51741,155.556091,-1.038681,2.443239,2.439263,1.658824,0.925938,0.237514,0.001066,0.42933,1.661763,108.576538,0.000636,2.386067,-0.000044,1,2.373562,-0.000053,1,0.600878,0.600715,0.106777,0,PSF-00336_20220919131203,PFA-00364,PSA-00381,PSF-00336,RHS-00170,2.0.0,2021-01-19T12:57:14.097Z
69,13:12:54,9/19/22,Auto gsw+F,LI-COR Default,,69,LCOR-029,13,0.455029,2.915933,0.393607,8.717363,1.626087,1.382298,3.789076,2.162989,13.771881,16.200768,37.750702,0.441786,PSF-00336_20220919131254,0,0,0,95.283508,212.856873,0.552359,0.5,0.8,312.007202,41.57,35.34,28.52,27.97,100.37,156,133.7,14.3,1412,4.002,-10,159,89,,,,,,,,0:00:00,0000-00-00,0,0,0,0,0,13:04:53,9/19/22,-0.25,0.004,0.004,-9999,-1.502,-1.648,-9999,1,150,0.005,2,0,mpf,7000,500,5,2,300,300,300,191.344147,25,-14.864587,191.009399,191.62149,-0.612091,2.444128,2.440743,1.655775,0.874843,0.237117,-0.007455,0.431413,1.392971,95.283508,0.000615,2.386067,-0.000044,1,2.373562,-0.000053,1,0.600878,0.600715,0.106777,0,PSF-00336_20220919131254,PFA-00364,PSA-00381,PSF-00336,RHS-00170,2.0.0,2021-01-19T12:57:14.097Z
70,13:13:39,9/19/22,Auto gsw+F,LI-COR Default,,70,LCOR-591,10,0.233802,2.915962,0.216447,5.264778,1.470832,1.323353,3.84779,2.376958,13.183236,14.652417,38.331661,0.441786,PSF-00336_20220919131339,0,0,0,155.293457,296.587006,0.476398,0.5,0.8,240.920242,37.55,33.79,28.54,28.24,100.38,156,153,1.9,1264,4.002,3,-130,77,,,,,,,,0:00:00,0000-00-00,0,0,0,0,0,13:04:53,9/19/22,-0.25,0,0.002,0.009,-1.496,-3.144,-10.445,1,150,0.005,2,0,mpf,7000,500,5,2,300,300,300,278.393616,25,-12.553169,278.778076,278.653687,0.12439,2.44189,2.435029,1.655806,0.921836,0.236898,-0.00454,0.433294,1.258283,155.293457,0.000615,2.386067,-0.000044,1,2.373562,-0.000053,1,0.600878,0.600715,0.106777,0,PSF-00336_20220919131339,PFA-00364,PSA-00381,PSF-00336,RHS-00170,2.0.0,2021-01-19T12:57:14.097Z
71,13:14:19,9/19/22,Auto gsw+F,LI-COR Default,,71,LCOR-114,10,0.156385,2.916863,0.148427,4.133757,1.466037,1.350305,4.183304,2.717268,13.45043,14.60323,41.67001,0.441786,PSF-00336_20220919131419,0,0,0,123.698471,209.83873,0.410507,0.5,0.8,267.257996,37.41,34.46,28.55,29.68,100.39,156.1,153.5,1.7,1628,4.001,34,-157,98,,,,,,,,0:00:00,0000-00-00,0,0,0,0,0,13:04:53,9/19/22,-0.25,0.006,0.004,0.013,-2.049,-4.333,-10.615,1,150,0.005,2,0,mpf,7000,500,5,2,300,300,300,195.447922,25,-10.287359,194.41008,195.142319,-0.732239,2.442854,2.434823,1.656757,0.922994,0.236813,0.013032,0.434728,1.589204,123.698471,0.000623,2.386067,-0.000044,1,2.373562,-0.000053,1,0.600878,0.600715,0.106777,0,PSF-00336_20220919131419,PFA-00364,PSA-00381,PSF-00336,RHS-00170,2.0.0,2021-01-19T12:57:14.097Z
72,13:14:47,9/19/22,Auto gsw+F,LI-COR Default,,72,LCOR-270,10,0.112055,2.917991,0.107911,3.344509,1.473478,1.379947,4.492028,3.01855,13.74771,14.679508,44.751785,0.441786,PSF-00336_20220919131447,0,0,0,77.955719,143.992508,0.458613,0.5,0.8,309.566467,37.54,35.16,28.58,30.92,100.38,156.2,154.4,1.2,1688,4,0,-101,104,,,,,,,,0:00:00,0000-00-00,0,0,0,0,0,13:04:53,9/19/22,-0.25,0.004,0.002,-9999,1.627,0.983,-9999,1,150,0.005,2,0,mpf,7000,500,5,2,300,300,300,124.584671,25,-13.720736,120.998383,124.39122,-3.392838,2.443858,2.435007,1.657952,0.925391,0.236564,0.028166,0.435434,1.643767,77.955719,0.000616,2.386067,-0.000044,1,2.373562,-0.000053,1,0.600878,0.600715,0.106777,0,PSF-00336_20220919131447,PFA-00364,PSA-00381,PSF-00336,RHS-00170,2.0.0,2021-01-19T12:57:14.097Z
73,13:15:56,9/19/22,Auto gsw+F,LI-COR Default,,73,LCOR-500,12,0.209243,2.914332,0.195226,4.845781,1.508539,1.372683,3.932473,2.423934,13.675482,15.028953,39.177616,0.441786,PSF-00336_20220919131556,0,0,0,125.04673,257.984802,0.515294,0.5,0.8,268.172546,38.28,34.84,28.65,28.61,100.38,155.8,154.7,0.7,1301,3.998,-2,-152,75,,,,,,,,0:00:00,0000-00-00,0,0,0,0,0,13:15:39,9/19/22,-0.19,0.001,0.004,-9999,-1.099,-1.944,-9999,1,150,0.005,2,0,mpf,7000,500,5,2,300,300,300,232.730988,25,-18.799652,227.240677,231.127838,-3.887161,2.443384,2.435978,1.654089,0.92597,0.235937,-0.001242,0.437763,1.291787,125.04673,0.000638,2.386067,-0.000044,1,2.373562,-0.000053,1,0.600878,0.600715,0.106777,0,PSF-00336_20220919131556,PFA-00364,PSA-00381,PSF-00336,RHS-00170,2.0.0,2021-01-19T12:57:14.097Z
74,13:16:44,9/19/22,Auto gsw+F,LI-COR Default,,74,LCOR-119,12,0.458721,2.91817,0.396408,8.647423,1.670575,1.42925,3.800666,2.130091,14.238178,16.64226,37.862213,0.441786,PSF-00336_20220919131644,0,0,0,120.665428,277.449524,0.56509,0.5,0.8,271.413513,42.34,36.22,28.67,28.03,100.38,156.3,155.4,0.6,1201,3.998,2,-165,86,,,,,,,,0:00:00,0000-00-00,0,0,0,0,0,13:15:39,9/19/22,-0.19,-0.001,0,-0.008,-1.861,-2.368,-1.188,1,150,0.005,2,0,mpf,7000,500,5,2,300,300,300,250.703217,25,-18.620869,248.899338,250.847961,-1.948624,2.445357,2.441706,1.658142,0.927799,0.235701,-0.008672,0.439341,1.200423,120.665428,0.000622,2.386067,-0.000044,1,2.373562,-0.000053,1,0.600878,0.600715,0.106777,0,PSF-00336_20220919131644,PFA-00364,PSA-00381,PSF-00336,RHS-00170,2.0.0,2021-01-19T12:57:14.097Z
75,13:17:27,9/19/22,Auto gsw+F,LI-COR Default,,75,LCOR-375,10,0.402221,2.915663,0.35346,8.648391,1.581525,1.339471,3.96979,2.388265,13.343435,15.754709,39.54594,0.441786,PSF-00336_20220919131727,0,0,0,130.253082,220.221848,0.408537,0.5,0.8,290.954102,40.04,33.91,28.69,28.78,100.38,156,154.1,1.2,1780,3.997,9,-142,88,,,,,,,,0:00:00,0000-00-00,0,0,0,0,0,13:15:39,9/19/22,-0.19,0.001,0.003,0.011,-1.06,-3.573,-11.136,1,150,0.005,2,0,mpf,7000,500,5,2,300,300,300,205.265884,25,-10.632156,204.285263,205.032867,-0.747604,2.442049,2.438471,1.65549,0.924543,0.235562,0.000252,0.440878,1.728424,130.253082,0.000625,2.386067,-0.000044,1,2.373562,-0.000053,1,0.600878,0.600715,0.106777,0,PSF-00336_20220919131727,PFA-00364,PSA-00381,PSF-00336,RHS-00170,2.0.0,2021-01-19T12:57:14.097Z
76,13:18:06,9/19/22,Auto gsw+F,LI-COR Default,,76,LCOR-208,12,0.378256,2.916742,0.334834,8.363668,1.60289,1.369062,4.039785,2.436896,13.63869,15.968098,40.244621,0.441786,PSF-00336_20220919131806,0,0,0,105.557442,209.251465,0.495547,0.5,0.8,312.148834,40.58,34.66,28.69,29.08,100.38,156.1,143.5,8,1575,3.996,9,149,69,,,,,,,,0:00:00,0000-00-00,0,0,0,0,0,13:15:39,9/19/22,-0.19,0.001,0.001,0.011,-1.076,-1.63,-1.669,1,150,0.005,2,0,mpf,7000,500,5,2,300,300,300,185.911774,25,-16.49918,182.418106,185.680923,-3.262817,2.443119,2.439226,1.656629,0.898504,0.235535,0.00391,0.4421,1.541076,105.557442,0.000621,2.386067,-0.000044,1,2.373562,-0.000053,1,0.600878,0.600715,0.106777,0,PSF-00336_20220919131806,PFA-00364,PSA-00381,PSF-00336,RHS-00170,2.0.0,2021-01-19T12:57:14.097Z
77,13:18:57,9/19/22,Auto gsw+F,LI-COR Default,,77,LCOR-457,12,0.330438,2.916683,0.296812,7.121487,1.559654,1.360455,3.90263,2.342976,13.552711,15.537113,38.877594,0.441786,PSF-00336_20220919131857,0,0,0,112.216827,230.244125,0.512618,0.5,0.8,306.00296,39.43,34.39,28.71,28.48,100.38,156.1,153,2,1492,3.995,-2,154,82,,,,,,,,0:00:00,0000-00-00,0,0,0,0,0,13:15:39,9/19/22,-0.19,0.001,0.001,0.027,0.483,3.086,7.58,1,150,0.005,2,0,mpf,7000,500,5,2,300,300,300,202.389832,25,-20.020124,197.320465,201.6436,-4.323135,2.442731,2.437591,1.656567,0.921763,0.235308,-0.003666,0.443883,1.466013,112.216827,0.000623,2.386067,-0.000044,1,2.373562,-0.000053,1,0.600878,0.600715,0.106777,0,PSF-00336_20220919131857,PFA-00364,PSA-00381,PSF-00336,RHS-00170,2.0.0,2021-01-19T12:57:14.097Z
79,13:20:05,9/19/22,Auto gsw+F,LI-COR Default,,79,LCOR-440,15,0.408894,2.915483,0.358601,7.973585,1.545726,1.322447,3.719259,2.173533,13.173879,15.398128,37.050312,0.441786,PSF-00336_20220919132005,0,0,0,116.624237,282.114563,0.586607,0.5,0.8,298.819519,39.07,33.43,28.71,27.66,100.38,155.9,153.5,1.6,1274,3.993,-15,-175,109,,,,,,,,0:00:00,0000-00-00,0,0,0,0,0,13:15:39,9/19/22,-0.19,0,0.002,0.014,0.876,1.969,2.715,1,150,0.005,2,0,mpf,7000,500,5,2,300,300,300,250.518677,25,-22.530394,246.145599,249.927902,-3.782303,2.441343,2.437088,1.655301,0.922956,0.235303,-0.013676,0.445972,1.266689,116.624237,0.000627,2.386067,-0.000044,1,2.373562,-0.000053,1,0.600878,0.600715,0.106777,0,PSF-00336_20220919132005,PFA-00364,PSA-00381,PSF-00336,RHS-00170,2.0.0,2021-01-19T12:57:14.097Z
80,13:20:46,9/19/22,Auto gsw+F,LI-COR Default,,80,LCOR-501,13,0.228252,2.916961,0.211687,5.370999,1.510261,1.359981,3.987492,2.477231,13.54779,15.044838,39.722385,0.441786,PSF-00336_20220919132046,0,0,0,116.187576,252.043488,0.539018,0.5,0.8,269.893677,38.25,34.45,28.68,28.85,100.38,156.1,154.3,1.1,1252,3.992,-9,-176,102,,,,,,,,0:00:00,0000-00-00,0,0,0,0,0,13:15:39,9/19/22,-0.19,0.003,0.004,0.005,-0.857,-2.088,-9.407,1,150,0.005,2,0,mpf,7000,500,5,2,300,300,300,230.806595,25,-14.711344,229.637497,231.027023,-1.389526,2.442818,2.435928,1.656861,0.925171,0.235626,0.001275,0.447145,1.246903,116.187576,0.00062,2.386067,-0.000044,1,2.373562,-0.000053,1,0.600878,0.600715,0.106777,0,PSF-00336_20220919132046,PFA-00364,PSA-00381,PSF-00336,RHS-00170,2.0.0,2021-01-19T12:57:14.097Z
81,13:21:22,9/19/22,Auto gsw+F,LI-COR Default,,81,LCOR-118,15,0.142171,2.916745,0.135563,3.586137,1.452746,1.352333,4.035618,2.582872,13.471901,14.47221,40.202702,0.441786,PSF-00336_20220919132122,0,0,0,155.447968,258.903229,0.39959,0.5,0.8,210.116776,36.81,34.27,28.67,29.06,100.38,156.1,152,2.6,1315,3.992,-2,-176,96,,,,,,,,0:00:00,0000-00-00,0,0,0,0,0,13:15:39,9/19/22,-0.19,0,-0.001,0.003,-1.418,-3.273,-10.557,1,150,0.005,2,0,mpf,7000,500,5,2,300,300,300,248.770233,25,-6.994456,249.5327,248.911026,0.621674,2.442564,2.433867,1.656633,0.919297,0.2357,0.003909,0.448206,1.304093,155.447968,0.000631,2.386067,-0.000044,1,2.373562,-0.000053,1,0.600878,0.600715,0.106777,0,PSF-00336_20220919132122,PFA-00364,PSA-00381,PSF-00336,RHS-00170,2.0.0,2021-01-19T12:57:14.097Z
82,13:22:12,9/19/22,Auto gsw+F,LI-COR Default,,82,LCOR-262,10,0.392832,2.916857,0.346206,7.03279,1.595598,1.398981,3.582135,1.986537,13.936711,15.895415,35.685387,0.441786,PSF-00336_20220919132212,0,0,0,129.073257,337.106476,0.617114,0.5,0.8,232.91153,40.39,35.41,28.69,27.01,100.38,156.1,155,0.7,944,3.991,-7,-164,95,,,,,,,,0:00:00,0000-00-00,0,0,0,0,0,13:15:39,9/19/22,-0.19,0,-0.003,0.011,0.613,1.486,-1.692,1,150,0.005,2,0,mpf,7000,500,5,2,300,300,300,312.471283,25,-17.04283,311.398041,312.759277,-1.361237,2.444197,2.438956,1.656752,0.926836,0.23551,-0.021105,0.449976,0.966164,129.073257,0.000617,2.386067,-0.000044,1,2.373562,-0.000053,1,0.600878,0.600715,0.106777,0,PSF-00336_20220919132212,PFA-00364,PSA-00381,PSF-00336,RHS-00170,2.0.0,2021-01-19T12:57:14.097Z
83,13:23:06,9/19/22,Auto gsw+F,LI-COR Default,,83,LCOR-172,15,0.230955,2.91637,0.214007,5.32735,1.457226,1.30802,3.889534,2.432308,13.030326,14.516695,38.74704,0.441786,PSF-00336_20220919132306,0,0,0,119.142654,247.891144,0.519375,0.5,0.8,146.529144,36.82,33.05,28.72,28.42,100.38,156,147.3,5.6,705,3.99,-17,-178,114,,,,,,,,0:00:00,0000-00-00,0,0,0,0,0,13:15:39,9/19/22,-0.19,0,0.002,0.014,-1.003,1.655,4.316,1,150,0.005,2,0,mpf,7000,500,5,2,300,300,300,223.546387,25,-17.643032,219.624283,222.686508,-3.062225,2.440794,2.433868,1.656237,0.907657,0.23524,-0.004459,0.452016,0.749178,119.142654,0.000618,2.386067,-0.000044,1,2.373562,-0.000053,1,0.600878,0.600715,0.106777,0,PSF-00336_20220919132306,PFA-00364,PSA-00381,PSF-00336,RHS-00170,2.0.0,2021-01-19T12:57:14.097Z
84,13:24:07,9/19/22,Auto gsw+F,LI-COR Default,,84,LCOR-081,13,0.30218,2.916983,0.273815,6.229703,1.502469,1.328141,3.727017,2.224548,13.229745,14.966247,37.125191,0.441786,PSF-00336_20220919132407,0,0,0,146.368149,321.110321,0.544181,0.5,0.8,216.282593,37.93,33.53,28.74,27.69,100.39,156.1,155.3,0.5,994,3.989,-20,-167,73,,,,,,,,0:00:00,0000-00-00,0,0,0,0,0,13:15:39,9/19/22,-0.19,-0.001,-0.003,0.001,-1.52,-2.7,-9.034,1,150,0.005,2,0,mpf,7000,500,5,2,300,300,300,302.786713,25,-12.637088,303.315277,303.057129,0.258148,2.441478,2.435448,1.656885,0.927629,0.235078,-0.013543,0.453699,1.011762,146.368149,0.000623,2.386067,-0.000044,1,2.373562,-0.000053,1,0.600878,0.600715,0.106777,0,PSF-00336_20220919132407,PFA-00364,PSA-00381,PSF-00336,RHS-00170,2.0.0,2021-01-19T12:57:14.097Z
