Obs#,Time,Date,configName,configAuthor,ID,,,,Fv/Fm,gsw,gbw,gtw,E_apparent,VPcham,VPref,VPleaf,VPDleaf,H2O_r,H2O_s,H2O_leaf,leaf_area,flashID,Fo,Fm,Fs,Fm',PhiPS2,PS2/1,abs,ETR,rh_s,rh_r,Tref,Tleaf,P_atm,flow,flow_s,leak_pct,Qamb,batt,pitch,roll,heading,angle_inc_leaf,direct_pct,slope_leaf,az_leaf,dec_solar,az_solar,zenith_solar,gps_time,gps_date,latitude,longitude,altitude,gps_sats,gps_HDOP,match_time,match_date,rh_adj,gsw1sec,gsw2sec,gsw4sec,flr1sec,flr2sec,flr4sec,auto,flow_set,gsw_limit,gsw_period,dark,flash_type,flash_intensity,modrate,flr_limit,flr_period,P1_dur,P2_dur,P3_dur,P1_Fmax,P2_ramp,P2_slp,P3_Fmax,P3_Pred,P3_DeltaF,v_humA,v_humB,v_flowIn,v_flowOut,v_temp,v_irt,v_pres,v_par,v_F,i_LED,b_rhr,m_rhr,span_rhr,b_rhs,m_rhs,span_rhs,z_flowIn,z_flowOut,z_quantum,z_flr,flashId,lciSerNum,lcpSerNum,lcfSerNum,lcrhSerNum,version,configUpdatedAt
2,5:02:43,8/19/22,Night sampling,CH,LCOR-316,,,,0.802651,0.052256,2.918551,0.051337,0.425216,1.471904,1.459968,2.291131,0.819228,14.485463,14.603888,22.732073,0.441786,PSF-00336_20220819050243,105.552078,534.849304,0,0,0,0.5,0.8,0.022676,58.34,57.86,21.18,19.61,100.79,156.3,153,2.1,0,4.11,8,179,88,,,,,,,,0:00:00,0000-00-00,0,0,0,0,0,4:59:20,8/19/22,-0.49,0,-0.001,-0.002,-0.534,-0.745,-2.296,1,150,0.005,2,1,rectangular,6000,5,1,2,55537,55537,55537,0,-9999,0,0,0,0,2.477089,2.466258,1.658546,0.921695,0.317816,-0.017767,0.108477,0.106841,105.552078,0.00159,2.386067,-0.000044,1,2.373562,-0.000053,1,0.600878,0.600715,0.106777,0,PSF-00336_20220819050243,PFA-00364,PSA-00381,PSF-00336,RHS-00170,2.0.0,2022-08-18T22:29:00.659Z
3,5:03:57,8/19/22,Night sampling,CH,LCOR-304,,,,0.819668,0.048484,2.917864,0.047692,0.361998,1.482296,1.472129,2.233304,0.751007,14.604529,14.705392,22.155899,0.441786,PSF-00336_20220819050357,100.168701,555.469421,0,0,0,0.5,0.8,0.014918,59.49,59.08,20.97,19.2,100.8,156.2,151.9,2.8,0,4.109,32,-166,86,,,,,,,,0:00:00,0000-00-00,0,0,0,0,0,4:59:20,8/19/22,-0.49,-0.002,-0.001,-0.007,-0.458,-0.84,-2.073,1,150,0.005,2,1,rectangular,6000,5,1,2,55537,55537,55537,0,-9999,0,0,0,0,2.478787,2.467894,1.657817,0.919119,0.32044,-0.020012,0.117104,0.106818,100.168701,0.001579,2.386067,-0.000044,1,2.373562,-0.000053,1,0.600878,0.600715,0.106777,0,PSF-00336_20220819050357,PFA-00364,PSA-00381,PSF-00336,RHS-00170,2.0.0,2022-08-18T22:29:00.659Z
4,5:05:02,8/19/22,Night sampling,CH,LCOR-439,,,,0.84392,0.047438,2.915222,0.046678,0.342161,1.482372,1.472743,2.20772,0.725348,14.610722,14.706255,21.902254,0.441786,PSF-00336_20220819050502,83.084824,532.322632,0,0,0,0.5,0.8,0.035241,60.14,59.75,20.8,19.02,100.8,155.9,155,0.6,0,4.107,-23,170,117,,,,,,,,0:00:00,0000-00-00,0,0,0,0,0,4:59:20,8/19/22,-0.49,-0.002,-0.004,-0.027,-0.082,-0.468,-0.907,1,150,0.005,2,1,rectangular,6000,5,1,2,55537,55537,55537,0,-9999,0,0,0,0,2.479727,2.468826,1.655025,0.926697,0.322697,-0.02007,0.124235,0.106872,83.084824,0.001588,2.386067,-0.000044,1,2.373562,-0.000053,1,0.600878,0.600715,0.106777,0,PSF-00336_20220819050502,PFA-00364,PSA-00381,PSF-00336,RHS-00170,2.0.0,2022-08-18T22:29:00.659Z
5,5:06:52,8/19/22,Night sampling,CH,LCOR-234,,,,0.806901,0.100953,2.916527,0.097576,0.776625,1.494879,1.473048,2.282104,0.787225,14.614153,14.830741,22.640823,0.441786,PSF-00336_20220819050652,104.586121,541.618835,0,0,0,0.5,0.8,0.094273,61.64,60.74,20.53,19.55,100.8,156.1,154.1,1.2,0,4.104,-38,-131,9,,,,,,,,0:00:00,0000-00-00,0,0,0,0,0,4:59:20,8/19/22,-0.49,0.001,0.002,-0.001,-0.333,0.229,-1.681,1,150,0.005,2,1,rectangular,6000,5,1,2,55537,55537,55537,0,-9999,0,0,0,0,2.481133,2.470945,1.656402,0.924666,0.326136,-0.011096,0.136415,0.107043,104.586121,0.001585,2.386067,-0.000044,1,2.373562,-0.000053,1,0.600878,0.600715,0.106777,0,PSF-00336_20220819050652,PFA-00364,PSA-00381,PSF-00336,RHS-00170,2.0.0,2022-08-18T22:29:00.659Z
6,5:09:16,8/19/22,Night sampling,CH,LCOR-519,,,,0.80633,0.098897,2.915797,0.095653,0.703447,1.507911,1.488128,2.235399,0.727489,14.76413,14.960396,22.178011,0.441786,PSF-00336_20220819050916,104.043961,537.223572,0,0,0,0.5,0.8,0.007963,63.3,62.47,20.24,19.22,100.79,156,155.3,0.4,0,4.101,-21,-116,21,,,,,,,,0:00:00,0000-00-00,0,0,0,0,0,4:59:20,8/19/22,-0.49,0,0,0.001,-0.902,-0.919,-2.066,1,150,0.005,2,1,rectangular,6000,5,1,2,55537,55537,55537,0,-9999,0,0,0,0,2.483529,2.473285,1.655632,0.927536,0.329963,-0.011497,0.151708,0.106799,104.043961,0.001727,2.386067,-0.000044,1,2.373562,-0.000053,1,0.600878,0.600715,0.106777,0,PSF-00336_20220819050916,PFA-00364,PSA-00381,PSF-00336,RHS-00170,2.0.0,2022-08-18T22:29:00.659Z
7,5:10:44,8/19/22,Night sampling,CH,LCOR-490,,,,0.842382,0.090593,2.916141,0.087864,0.57795,1.498067,1.481815,2.149125,0.651058,14.700326,14.861551,21.320366,0.441786,PSF-00336_20220819051044,85.380081,541.69104,0,0,0,0.5,0.8,0.006996,63.42,62.73,20.11,18.59,100.8,156,155.8,0.2,0,4.098,-10,174,126,,,,,,,,0:00:00,0000-00-00,0,0,0,0,0,5:10:34,8/19/22,-0.46,-0.002,-0.003,-0.011,-0.111,-0.321,-0.522,1,150,0.005,2,1,rectangular,6000,5,1,2,55537,55537,55537,0,-9999,0,0,0,0,2.483918,2.473445,1.655995,0.928761,0.331774,-0.016971,0.160784,0.106796,85.380081,0.00159,2.386067,-0.000044,1,2.373562,-0.000053,1,0.600878,0.600715,0.106777,0,PSF-00336_20220819051044,PFA-00364,PSA-00381,PSF-00336,RHS-00170,2.0.0,2022-08-18T22:29:00.659Z
8,5:11:50,8/19/22,Night sampling,CH,LCOR-155,,,,0.842461,0.123838,2.915583,0.118793,0.767866,1.503903,1.482304,2.14366,0.639757,14.705793,14.920078,21.267048,0.441786,PSF-00336_20220819051150,82.941414,526.48291,0,0,0,0.5,0.8,0.007261,64.06,63.14,20.01,18.55,100.8,155.9,155.4,0.4,0,4.098,-54,-167,111,,,,,,,,0:00:00,0000-00-00,0,0,0,0,0,5:10:34,8/19/22,-0.46,-0.005,-0.005,-0.013,-0.284,-0.606,-0.947,1,150,0.005,2,1,rectangular,6000,5,1,2,55537,55537,55537,0,-9999,0,0,0,0,2.484482,2.474331,1.655406,0.927806,0.33308,-0.016309,0.167517,0.106797,82.941414,0.001564,2.386067,-0.000044,1,2.373562,-0.000053,1,0.600878,0.600715,0.106777,0,PSF-00336_20220819051150,PFA-00364,PSA-00381,PSF-00336,RHS-00170,2.0.0,2022-08-18T22:29:00.659Z
9,5:13:35,8/19/22,Night sampling,CH,LCOR-025,,,,0.815125,0.083967,2.916665,0.081618,0.555821,1.509993,1.494373,2.183824,0.673831,14.826118,14.981089,21.666372,0.441786,PSF-00336_20220819051335,95.829605,518.34729,0,0,0,0.5,0.8,0.006385,64.92,64.25,19.86,18.84,100.79,156.1,155.7,0.2,0,4.095,-19,-129,72,,,,,,,,0:00:00,0000-00-00,0,0,0,0,0,5:10:34,8/19/22,-0.46,-0.001,-0.002,-0.002,-0.603,-0.828,-2.144,1,150,0.005,2,1,rectangular,6000,5,1,2,55537,55537,55537,0,-9999,0,0,0,0,2.486001,2.475541,1.656548,0.928661,0.335101,-0.011291,0.1776,0.106795,95.829605,0.001559,2.386067,-0.000044,1,2.373562,-0.000053,1,0.600878,0.600715,0.106777,0,PSF-00336_20220819051335,PFA-00364,PSA-00381,PSF-00336,RHS-00170,2.0.0,2022-08-18T22:29:00.659Z
10,5:14:57,8/19/22,Night sampling,CH,LCOR-432,,,,0.817819,0.083278,2.913932,0.080965,0.511418,1.510021,1.495617,2.135222,0.625201,14.837398,14.980293,21.182655,0.441786,PSF-00336_20220819051457,95.770241,525.68866,0,0,0,0.5,0.8,0.006663,65.3,64.68,19.76,18.48,100.8,155.7,148.4,4.7,0,4.093,-48,177,171,,,,,,,,0:00:00,0000-00-00,0,0,0,0,0,5:10:34,8/19/22,-0.46,0.001,-0.002,-0.001,-0.4,-0.838,-2.069,1,150,0.005,2,1,rectangular,6000,5,1,2,55537,55537,55537,0,-9999,0,0,0,0,2.486609,2.476093,1.653669,0.910304,0.33639,-0.014207,0.185414,0.106796,95.770241,0.00159,2.386067,-0.000044,1,2.373562,-0.000053,1,0.600878,0.600715,0.106777,0,PSF-00336_20220819051457,PFA-00364,PSA-00381,PSF-00336,RHS-00170,2.0.0,2022-08-18T22:29:00.659Z
11,5:16:04,8/19/22,Night sampling,CH,LCOR-492,,,,0.827279,0.077325,2.916567,0.075328,0.476302,1.505978,1.492591,2.131836,0.625858,14.80756,14.940373,21.149328,0.441786,PSF-00336_20220819051604,91.751572,531.212952,0,0,0,0.5,0.8,0.017135,65.4,64.82,19.7,18.46,100.8,156.1,155.6,0.3,0,4.091,20,164,124,,,,,,,,0:00:00,0000-00-00,0,0,0,0,0,5:10:34,8/19/22,-0.46,-0.001,-0.003,-0.009,-0.338,-0.573,-1.188,1,150,0.005,2,1,rectangular,6000,5,1,2,55537,55537,55537,0,-9999,0,0,0,0,2.486805,2.476237,1.656445,0.928295,0.337282,-0.01374,0.191667,0.106824,91.751572,0.001534,2.386067,-0.000044,1,2.373562,-0.000053,1,0.600878,0.600715,0.106777,0,PSF-00336_20220819051604,PFA-00364,PSA-00381,PSF-00336,RHS-00170,2.0.0,2022-08-18T22:29:00.659Z
12,5:17:29,8/19/22,Night sampling,CH,LCOR-446,,,,0.830147,0.077196,2.916857,0.075206,0.47579,1.51156,1.498191,2.137695,0.626135,14.863819,14.996452,21.208452,0.441786,PSF-00336_20220819051729,91.72583,540.031677,0,0,0,0.5,0.8,0.017716,65.91,65.32,19.63,18.5,100.79,156.1,155.1,0.7,0,4.09,-5,-179,249,,,,,,,,0:00:00,0000-00-00,0,0,0,0,0,5:10:34,8/19/22,-0.46,-0.001,0.004,-0.01,-0.149,-0.83,-1.778,1,150,0.005,2,1,rectangular,6000,5,1,2,55537,55537,55537,0,-9999,0,0,0,0,2.487499,2.476945,1.656752,0.926964,0.338173,-0.012507,0.199358,0.106826,91.72583,0.001593,2.386067,-0.000044,1,2.373562,-0.000053,1,0.600878,0.600715,0.106777,0,PSF-00336_20220819051729,PFA-00364,PSA-00381,PSF-00336,RHS-00170,2.0.0,2022-08-18T22:29:00.659Z
13,5:18:47,8/19/22,Night sampling,CH,LCOR-190,,,,0.814186,0.09731,2.917539,0.094169,0.563023,1.519944,1.504135,2.111676,0.591732,14.923941,15.080793,20.951925,0.441786,PSF-00336_20220819051847,99.143745,533.563599,0,0,0,0.5,0.8,0.006889,66.48,65.78,19.58,18.31,100.79,156.2,154.8,0.9,0,4.087,-46,177,149,,,,,,,,0:00:00,0000-00-00,0,0,0,0,0,5:10:34,8/19/22,-0.46,0,0.001,-0.003,-0.458,-0.988,-2.227,1,150,0.005,2,1,rectangular,6000,5,1,2,55537,55537,55537,0,-9999,0,0,0,0,2.488122,2.477725,1.657473,0.92627,0.338842,-0.014118,0.206236,0.106796,99.143745,0.001608,2.386067,-0.000044,1,2.373562,-0.000053,1,0.600878,0.600715,0.106777,0,PSF-00336_20220819051847,PFA-00364,PSA-00381,PSF-00336,RHS-00170,2.0.0,2022-08-18T22:29:00.659Z
14,5:20:09,8/19/22,Night sampling,CH,LCOR-374,,,,0.841969,0.063378,2.916585,0.06203,0.385773,1.508916,1.498073,2.124481,0.615566,14.862431,14.969996,21.077042,0.441786,PSF-00336_20220819052009,82.12674,519.687317,0,0,0,0.5,0.8,0.007653,66.24,65.76,19.52,18.4,100.8,156.1,155.4,0.5,0,4.086,-22,170,151,,,,,,,,0:00:00,0000-00-00,0,0,0,0,0,5:10:34,8/19/22,-0.46,-0.002,-0.002,-0.01,-0.191,-0.031,-0.681,1,150,0.005,2,1,rectangular,6000,5,1,2,55537,55537,55537,0,-9999,0,0,0,0,2.488109,2.477422,1.656464,0.927719,0.339649,-0.012375,0.213369,0.106798,82.12674,0.001655,2.386067,-0.000044,1,2.373562,-0.000053,1,0.600878,0.600715,0.106777,0,PSF-00336_20220819052009,PFA-00364,PSA-00381,PSF-00336,RHS-00170,2.0.0,2022-08-18T22:29:00.659Z
15,5:21:39,8/19/22,Night sampling,CH,LCOR-232,,,,0.820555,0.097682,2.916076,0.094516,0.567509,1.528564,1.512611,2.122816,0.594252,15.006691,15.164963,21.060572,0.441786,PSF-00336_20220819052139,93.396667,520.474792,0,0,0,0.5,0.8,0.008619,67.19,66.49,19.5,18.39,100.8,156,155.5,0.3,0,4.084,-5,-104,86,,,,,,,,0:00:00,0000-00-00,0,0,0,0,0,5:21:05,8/19/22,-0.43,0,-0.001,-0.005,-0.677,-0.958,-2.432,1,150,0.005,2,1,rectangular,6000,5,1,2,55537,55537,55537,0,-9999,0,0,0,0,2.489075,2.478659,1.655926,0.928039,0.339939,-0.012273,0.220765,0.106801,93.396667,0.001714,2.386067,-0.000044,1,2.373562,-0.000053,1,0.600878,0.600715,0.106777,0,PSF-00336_20220819052139,PFA-00364,PSA-00381,PSF-00336,RHS-00170,2.0.0,2022-08-18T22:29:00.659Z
16,5:23:17,8/19/22,Night sampling,CH,LCOR-419,,,,0.845538,0.063552,2.91686,0.062197,0.375982,1.527694,1.517132,2.125965,0.59827,15.05158,15.156373,21.09186,0.441786,PSF-00336_20220819052317,81.35891,526.723999,0,0,0,0.5,0.8,0.008748,67.47,67.01,19.42,18.42,100.8,156.1,146,6.5,0,4.081,-64,-155,58,,,,,,,,0:00:00,0000-00-00,0,0,0,0,0,5:21:05,8/19/22,-0.43,0,-0.004,-9999,0.159,0.138,-9999,1,150,0.005,2,1,rectangular,6000,5,1,2,55537,55537,55537,0,-9999,0,0,0,0,2.489784,2.479066,1.656754,0.904514,0.340996,-0.011133,0.22872,0.106801,81.35891,0.00166,2.386067,-0.000044,1,2.373562,-0.000053,1,0.600878,0.600715,0.106777,0,PSF-00336_20220819052317,PFA-00364,PSA-00381,PSF-00336,RHS-00170,2.0.0,2022-08-18T22:29:00.659Z
17,5:24:31,8/19/22,Night sampling,CH,LCOR-480,,,,0.846725,0.109096,2.915557,0.105161,0.594559,1.525805,1.509082,2.085522,0.559717,14.970423,15.136311,20.688828,0.441786,PSF-00336_20220819052431,81.306335,530.460449,0,0,0,0.5,0.8,0.008096,67.61,66.87,19.37,18.11,100.8,155.9,155.9,0.1,0,4.079,0,172,79,,,,,,,,0:00:00,0000-00-00,0,0,0,0,0,5:21:05,8/19/22,-0.43,-0.003,-0.004,-0.019,0.228,-0.103,-0.964,1,150,0.005,2,1,rectangular,6000,5,1,2,55537,55537,55537,0,-9999,0,0,0,0,2.489618,2.479265,1.655378,0.928971,0.341713,-0.013937,0.234594,0.106799,81.306335,0.001876,2.386067,-0.000044,1,2.373562,-0.000053,1,0.600878,0.600715,0.106777,0,PSF-00336_20220819052431,PFA-00364,PSA-00381,PSF-00336,RHS-00170,2.0.0,2022-08-18T22:29:00.659Z
18,5:25:50,8/19/22,Night sampling,CH,LCOR-453,,,,0.82804,0.13012,2.917816,0.124565,0.715595,1.531388,1.511297,2.1001,0.568712,14.991129,15.190422,20.831688,0.441786,PSF-00336_20220819052550,91.74192,533.506775,0,0,0,0.5,0.8,0.007397,68.02,67.13,19.33,18.22,100.81,156.2,155.1,0.7,0,4.078,-10,169,87,,,,,,,,0:00:00,0000-00-00,0,0,0,0,0,5:21:05,8/19/22,-0.43,0.001,-0.001,-0.009,-0.463,-0.569,-1.249,1,150,0.005,2,1,rectangular,6000,5,1,2,55537,55537,55537,0,-9999,0,0,0,0,2.489978,2.479834,1.657766,0.927019,0.342258,-0.012258,0.240679,0.106797,91.74192,0.002121,2.386067,-0.000044,1,2.373562,-0.000053,1,0.600878,0.600715,0.106777,0,PSF-00336_20220819052550,PFA-00364,PSA-00381,PSF-00336,RHS-00170,2.0.0,2022-08-18T22:29:00.659Z
19,5:26:54,8/19/22,Night sampling,CH,LCOR-216,,,,0.817158,0.055929,2.916385,0.054877,0.313319,1.526811,1.518003,2.092127,0.565316,15.056122,15.143484,20.750494,0.441786,PSF-00336_20220819052654,95.736984,523.604736,0,0,0,0.5,0.8,0.008455,67.96,67.57,19.3,18.16,100.82,156,154.1,1.3,0,4.076,8,175,85,,,,,,,,0:00:00,0000-00-00,0,0,0,0,0,5:21:05,8/19/22,-0.43,-0.003,-0.004,-0.014,-0.34,-0.966,-1.754,1,150,0.005,2,1,rectangular,6000,5,1,2,55537,55537,55537,0,-9999,0,0,0,0,2.490561,2.479757,1.656253,0.924526,0.342707,-0.01256,0.245623,0.106801,95.736984,0.002201,2.386067,-0.000044,1,2.373562,-0.000053,1,0.600878,0.600715,0.106777,0,PSF-00336_20220819052654,PFA-00364,PSA-00381,PSF-00336,RHS-00170,2.0.0,2022-08-18T22:29:00.659Z
20,5:28:00,8/19/22,Night sampling,CH,LCOR-426,,,,0.846691,0.086525,2.917603,0.084033,0.473995,1.53544,1.522129,2.093886,0.558447,15.097528,15.229553,20.768612,0.441786,PSF-00336_20220819052800,86.399673,563.563965,0,0,0,0.5,0.8,0.007829,68.49,67.9,19.26,18.17,100.82,156.2,152.6,2.3,0,4.074,-9,174,78,,,,,,,,0:00:00,0000-00-00,0,0,0,0,0,5:21:05,8/19/22,-0.43,-0.002,-0.003,-0.009,0.463,0.459,-1.008,1,150,0.005,2,1,rectangular,6000,5,1,2,55537,55537,55537,0,-9999,0,0,0,0,2.491012,2.480486,1.657541,0.920698,0.343198,-0.012007,0.250564,0.106798,86.399673,0.002014,2.386067,-0.000044,1,2.373562,-0.000053,1,0.600878,0.600715,0.106777,0,PSF-00336_20220819052800,PFA-00364,PSA-00381,PSF-00336,RHS-00170,2.0.0,2022-08-18T22:29:00.659Z
21,5:29:53,8/19/22,Night sampling,CH,LCOR-509,,,,0.838686,0.095399,2.91619,0.092377,0.51368,1.53766,1.523222,2.088123,0.550463,15.110614,15.253847,20.714531,0.441786,PSF-00336_20220819052953,85.797073,531.864868,0,0,0,0.5,0.8,0.007624,68.81,68.16,19.21,18.13,100.8,156,154.8,0.8,0,4.072,-18,-166,86,,,,,,,,0:00:00,0000-00-00,0,0,0,0,0,5:21:05,8/19/22,-0.43,-0.001,-0.001,-0.012,-0.217,-0.249,-0.579,1,150,0.005,2,1,rectangular,6000,5,1,2,55537,55537,55537,0,-9999,0,0,0,0,2.49137,2.48092,1.656046,0.926382,0.343886,-0.011929,0.259014,0.106798,85.797073,0.004117,2.386067,-0.000044,1,2.373562,-0.000053,1,0.600878,0.600715,0.106777,0,PSF-00336_20220819052953,PFA-00364,PSA-00381,PSF-00336,RHS-00170,2.0.0,2022-08-18T22:29:00.659Z
22,5:31:07,8/19/22,Night sampling,CH,LCOR-549,,,,0.830529,0.056703,2.915963,0.055622,0.317083,1.531997,1.523082,2.096356,0.564358,15.108105,15.196541,20.794653,0.441786,PSF-00336_20220819053107,88.09948,519.849304,0,0,0,0.5,0.8,0.009115,68.67,68.27,19.19,18.19,100.81,156,155.3,0.4,0,4.07,-39,179,115,,,,,,,,0:00:00,0000-00-00,0,0,0,0,0,5:21:05,8/19/22,-0.43,0,-0.002,-0.015,-0.271,-0.483,-1.268,1,150,0.005,2,1,rectangular,6000,5,1,2,55537,55537,55537,0,-9999,0,0,0,0,2.491525,2.480748,1.655807,0.927669,0.344269,-0.010921,0.264313,0.106802,88.09948,0.002046,2.386067,-0.000044,1,2.373562,-0.000053,1,0.600878,0.600715,0.106777,0,PSF-00336_20220819053107,PFA-00364,PSA-00381,PSF-00336,RHS-00170,2.0.0,2022-08-18T22:29:00.659Z
23,5:32:19,8/19/22,Night sampling,CH,LCOR-555,,,,0.80471,0.047409,2.916666,0.046651,0.263607,1.53966,1.532252,2.099105,0.559445,15.197185,15.270659,20.819344,0.441786,PSF-00336_20220819053219,101.285217,518.639832,0,0,0,0.5,0.8,0.047127,69.01,68.68,19.19,18.21,100.82,156.1,152.6,2.2,0,4.069,26,165,83,,,,,,,,0:00:00,0000-00-00,0,0,0,0,0,5:31:55,8/19/22,-0.4,-0.001,-0.002,-0.005,-0.637,-0.837,-2.345,1,150,0.005,2,1,rectangular,6000,5,1,2,55537,55537,55537,0,-9999,0,0,0,0,2.492064,2.481175,1.656549,0.920868,0.344264,-0.010693,0.269497,0.10691,101.285217,0.00219,2.386067,-0.000044,1,2.373562,-0.000053,1,0.600878,0.600715,0.106777,0,PSF-00336_20220819053219,PFA-00364,PSA-00381,PSF-00336,RHS-00170,2.0.0,2022-08-18T22:29:00.659Z
24,5:33:46,8/19/22,Night sampling,CH,LCOR-615,,,,0.81308,0.075019,2.917301,0.073139,0.414671,1.543554,1.531907,2.104836,0.561282,15.194253,15.309772,20.876852,0.441786,PSF-00336_20220819053346,100.082161,535.42688,0,0,0,0.5,0.8,0.009434,69.29,68.77,19.16,18.26,100.82,156.2,155.2,0.6,0,4.066,0,147,99,,,,,,,,0:00:00,0000-00-00,0,0,0,0,0,5:31:55,8/19/22,-0.4,-0.001,-0.001,-0.001,-0.553,-0.914,-2.153,1,150,0.005,2,1,rectangular,6000,5,1,2,55537,55537,55537,0,-9999,0,0,0,0,2.492188,2.481557,1.657221,0.927198,0.344602,-0.009935,0.275621,0.106803,100.082161,0.002085,2.386067,-0.000044,1,2.373562,-0.000053,1,0.600878,0.600715,0.106777,0,PSF-00336_20220819053346,PFA-00364,PSA-00381,PSF-00336,RHS-00170,2.0.0,2022-08-18T22:29:00.659Z
25,5:35:12,8/19/22,Night sampling,CH,LCOR-586,,,,0.808398,0.062579,2.918202,0.061266,0.349666,1.550555,1.540742,2.115514,0.564959,15.282028,15.379362,20.982977,0.441786,PSF-00336_20220819053512,104.965569,547.831543,0,0,0,0.5,0.8,0.008237,69.7,69.26,19.14,18.34,100.82,156.3,153.9,1.5,0,4.065,-26,-167,76,,,,,,,,0:00:00,0000-00-00,0,0,0,0,0,5:31:55,8/19/22,-0.4,0.003,0.002,0.002,-0.275,-0.832,-2.115,1,150,0.005,2,1,rectangular,6000,5,1,2,55537,55537,55537,0,-9999,0,0,0,0,2.492841,2.482113,1.658176,0.924078,0.344907,-0.008789,0.281621,0.1068,104.965569,0.00202,2.386067,-0.000044,1,2.373562,-0.000053,1,0.600878,0.600715,0.106777,0,PSF-00336_20220819053512,PFA-00364,PSA-00381,PSF-00336,RHS-00170,2.0.0,2022-08-18T22:29:00.659Z
26,5:36:35,8/19/22,Night sampling,CH,LCOR-029,,,,0.820587,0.077929,2.915944,0.0759,0.402313,1.554939,1.543629,2.079679,0.52474,15.311581,15.423763,20.628767,0.441786,PSF-00336_20220819053635,97.26226,542.113037,0,0,0,0.5,0.8,0.009006,69.93,69.42,19.13,18.06,100.81,156,155.8,0.1,0,4.063,-42,-152,53,,,,,,,,0:00:00,0000-00-00,0,0,0,0,0,5:31:55,8/19/22,-0.4,-0.002,-0.001,-0.006,-0.398,-0.54,-1.885,1,150,0.005,2,1,rectangular,6000,5,1,2,55537,55537,55537,0,-9999,0,0,0,0,2.493056,2.482423,1.655787,0.92872,0.345011,-0.011723,0.287188,0.106802,97.26226,0.002071,2.386067,-0.000044,1,2.373562,-0.000053,1,0.600878,0.600715,0.106777,0,PSF-00336_20220819053635,PFA-00364,PSA-00381,PSF-00336,RHS-00170,2.0.0,2022-08-18T22:29:00.659Z
27,5:37:58,8/19/22,Night sampling,CH,LCOR-270,sick,,,0.831306,0.046154,2.916639,0.045435,0.249976,1.554067,1.547045,2.098634,0.544566,15.346675,15.416342,20.818436,0.441786,PSF-00336_20220819053758,83.374146,494.232056,0,0,0,0.5,0.8,0.030928,69.94,69.62,19.12,18.21,100.81,156.1,154.9,0.8,0,4.062,-64,168,77,,,,,,,,0:00:00,0000-00-00,0,0,0,0,0,5:31:55,8/19/22,-0.4,-0.004,-0.005,-0.019,-0.518,-0.688,-2.01,1,150,0.005,2,1,rectangular,6000,5,1,2,55537,55537,55537,0,-9999,0,0,0,0,2.493318,2.482432,1.65652,0.926509,0.345151,-0.010008,0.292689,0.106862,83.374146,0.002372,2.386067,-0.000044,1,2.373562,-0.000053,1,0.600878,0.600715,0.106777,0,PSF-00336_20220819053758,PFA-00364,PSA-00381,PSF-00336,RHS-00170,2.0.0,2022-08-18T22:29:00.659Z
28,5:38:38,8/19/22,Night sampling,CH,LCOR-500,,,,0.837154,0.088512,2.917074,0.085905,0.441046,1.560723,1.548337,2.068962,0.508239,15.359303,15.48217,20.523834,0.441786,PSF-00336_20220819053838,90.145828,553.565735,0,0,0,0.5,0.8,0.010765,70.26,69.7,19.12,17.98,100.81,156.1,155.7,0.3,0,4.06,0,171,125,,,,,,,,0:00:00,0000-00-00,0,0,0,0,0,5:31:55,8/19/22,-0.4,-0.003,-0.004,-0.015,-0.238,-0.316,-0.882,1,150,0.005,2,1,rectangular,6000,5,1,2,55537,55537,55537,0,-9999,0,0,0,0,2.493423,2.482861,1.656981,0.928504,0.345215,-0.012467,0.295331,0.106806,90.145828,0.002188,2.386067,-0.000044,1,2.373562,-0.000053,1,0.600878,0.600715,0.106777,0,PSF-00336_20220819053838,PFA-00364,PSA-00381,PSF-00336,RHS-00170,2.0.0,2022-08-18T22:29:00.659Z
29,5:40:07,8/19/22,Night sampling,CH,LCOR-501,,,,0.816674,0.085488,2.916562,0.083054,0.46923,1.566372,1.553189,2.125527,0.559155,15.4061,15.536863,21.083124,0.441786,PSF-00336_20220819054007,100.354317,547.410278,0,0,0,0.5,0.8,0.037438,70.63,70.03,19.09,18.41,100.82,156.1,156.1,0,0,4.058,-45,145,114,,,,,,,,0:00:00,0000-00-00,0,0,0,0,0,5:31:55,8/19/22,-0.4,-0.001,-0.001,0,-0.274,-0.793,-2.186,1,150,0.005,2,1,rectangular,6000,5,1,2,55537,55537,55537,0,-9999,0,0,0,0,2.493867,2.483363,1.65644,0.929578,0.345578,-0.007403,0.301092,0.106881,100.354317,0.002244,2.386067,-0.000044,1,2.373562,-0.000053,1,0.600878,0.600715,0.106777,0,PSF-00336_20220819054007,PFA-00364,PSA-00381,PSF-00336,RHS-00170,2.0.0,2022-08-18T22:29:00.659Z
30,5:41:31,8/19/22,Night sampling,CH,LCOR-081,,,,0.833613,0.026573,2.916528,0.026333,0.138831,1.554483,1.550582,2.07646,0.521977,15.379554,15.418248,20.59551,0.441786,PSF-00336_20220819054131,91.706154,551.160706,0,0,0,0.5,0.8,0.011636,70.16,69.98,19.08,18.04,100.82,156.1,156,0.1,0,4.056,-16,-173,107,,,,,,,,0:00:00,0000-00-00,0,0,0,0,0,5:31:55,8/19/22,-0.4,-0.003,-0.001,-0.012,-0.196,-0.183,-0.585,1,150,0.005,2,1,rectangular,6000,5,1,2,55537,55537,55537,0,-9999,0,0,0,0,2.493804,2.482739,1.656404,0.929253,0.345788,-0.011363,0.306458,0.106809,91.706154,0.002192,2.386067,-0.000044,1,2.373562,-0.000053,1,0.600878,0.600715,0.106777,0,PSF-00336_20220819054131,PFA-00364,PSA-00381,PSF-00336,RHS-00170,2.0.0,2022-08-18T22:29:00.659Z
31,5:43:41,8/19/22,Night sampling,CH,LCOR-567,,,,0.847589,0.070562,2.916103,0.068895,0.34806,1.565848,1.556065,2.066022,0.500175,15.433934,15.530966,20.491982,0.441786,PSF-00336_20220819054341,81.809875,536.772278,0,0,0,0.5,0.8,0.011964,70.62,70.18,19.09,17.96,100.82,156,155,0.7,0,4.053,-52,160,94,,,,,,,,0:00:00,0000-00-00,0,0,0,0,0,5:43:09,8/19/22,-0.33,0,0,-0.01,0.054,0.003,0.166,1,150,0.005,2,1,rectangular,6000,5,1,2,55537,55537,55537,0,-9999,0,0,0,0,2.494066,2.483264,1.655955,0.926761,0.345645,-0.012367,0.31442,0.106809,81.809875,0.002624,2.386067,-0.000044,1,2.373562,-0.000053,1,0.600878,0.600715,0.106777,0,PSF-00336_20220819054341,PFA-00364,PSA-00381,PSF-00336,RHS-00170,2.0.0,2022-08-18T22:29:00.659Z
32,5:45:11,8/19/22,Night sampling,CH,LCOR-225,,,,0.846814,0.076073,2.917089,0.07414,0.367308,1.572528,1.562213,2.063016,0.490488,15.494957,15.597268,20.462217,0.441786,PSF-00336_20220819054511,82.330582,537.455322,0,0,0,0.5,0.8,0.013949,71,70.54,19.07,17.94,100.82,156.1,156,0.1,0,4.052,-25,166,78,,,,,,,,0:00:00,0000-00-00,0,0,0,0,0,5:43:09,8/19/22,-0.33,0,-0.002,-0.012,-0.29,-0.149,-0.096,1,150,0.005,2,1,rectangular,6000,5,1,2,55537,55537,55537,0,-9999,0,0,0,0,2.494536,2.483776,1.656996,0.929237,0.345889,-0.012424,0.319797,0.106815,82.330582,0.002265,2.386067,-0.000044,1,2.373562,-0.000053,1,0.600878,0.600715,0.106777,0,PSF-00336_20220819054511,PFA-00364,PSA-00381,PSF-00336,RHS-00170,2.0.0,2022-08-18T22:29:00.659Z
33,5:46:24,8/19/22,Night sampling,CH,LCOR-108,,,,0.850212,0.040468,2.917378,0.039914,0.210795,1.564677,1.558759,2.087464,0.522786,15.461501,15.520207,20.70578,0.441786,PSF-00336_20220819054624,78.271507,522.54834,0,0,0,0.5,0.8,0.014004,70.72,70.45,19.05,18.12,100.82,156.2,155.8,0.2,0,4.051,-52,158,105,,,,,,,,0:00:00,0000-00-00,0,0,0,0,0,5:43:09,8/19/22,-0.33,-0.002,-0.002,-0.012,0.348,-0.058,0.075,1,150,0.005,2,1,rectangular,6000,5,1,2,55537,55537,55537,0,-9999,0,0,0,0,2.494424,2.483397,1.657303,0.928936,0.3461,-0.010177,0.32404,0.106815,78.271507,0.002275,2.386067,-0.000044,1,2.373562,-0.000053,1,0.600878,0.600715,0.106777,0,PSF-00336_20220819054624,PFA-00364,PSA-00381,PSF-00336,RHS-00170,2.0.0,2022-08-18T22:29:00.659Z
34,5:47:38,8/19/22,Night sampling,CH,LCOR-479,,,,0.847335,0.043342,2.918311,0.042708,0.227214,1.563456,1.557081,2.090107,0.526651,15.44467,15.507904,20.731745,0.441786,PSF-00336_20220819054738,79.810379,522.782593,0,0,0,0.5,0.8,0.010098,70.7,70.41,19.05,18.14,100.82,156.3,155.4,0.5,0,4.048,-23,-90,305,,,,,,,,0:00:00,0000-00-00,0,0,0,0,0,5:43:09,8/19/22,-0.33,0,-0.002,-9999,-0.125,-0.198,-9999,1,150,0.005,2,1,rectangular,6000,5,1,2,55537,55537,55537,0,-9999,0,0,0,0,2.494373,2.483373,1.658291,0.927875,0.346212,-0.009862,0.328465,0.106804,79.810379,0.002371,2.386067,-0.000044,1,2.373562,-0.000053,1,0.600878,0.600715,0.106777,0,PSF-00336_20220819054738,PFA-00364,PSA-00381,PSF-00336,RHS-00170,2.0.0,2022-08-18T22:29:00.659Z
35,5:49:04,8/19/22,Night sampling,CH,LCOR-532,,,,0.848711,0.091758,2.917022,0.08896,0.474438,1.569847,1.556523,2.097742,0.527895,15.439052,15.571214,20.807367,0.441786,PSF-00336_20220819054904,81.719757,540.157227,0,0,0,0.5,0.8,0.01278,71,70.4,19.04,18.2,100.82,156.1,155.5,0.4,0,4.047,-45,-132,36,,,,,,,,0:00:00,0000-00-00,0,0,0,0,0,5:43:09,8/19/22,-0.33,0.003,-0.002,-9999,-0.003,-0.565,-9999,1,150,0.005,2,1,rectangular,6000,5,1,2,55537,55537,55537,0,-9999,0,0,0,0,2.494365,2.483785,1.656926,0.928132,0.34627,-0.009171,0.333315,0.106811,81.719757,0.002371,2.386067,-0.000044,1,2.373562,-0.000053,1,0.600878,0.600715,0.106777,0,PSF-00336_20220819054904,PFA-00364,PSA-00381,PSF-00336,RHS-00170,2.0.0,2022-08-18T22:29:00.659Z
36,5:50:20,8/19/22,Night sampling,CH,LCOR-219,,,,0.839588,0.073207,2.914616,0.071413,0.360117,1.564159,1.554025,2.063436,0.499277,15.41344,15.513952,20.465979,0.441786,PSF-00336_20220819055020,85.073593,530.343872,0,0,0,0.5,0.8,0.017785,70.74,70.29,19.04,17.94,100.82,155.8,156,-0.1,0,4.045,-17,175,80,,,,,,,,0:00:00,0000-00-00,0,0,0,0,0,5:43:09,8/19/22,-0.33,-0.001,-0.005,-0.029,0.191,-0.027,-0.455,1,150,0.005,2,1,rectangular,6000,5,1,2,55537,55537,55537,0,-9999,0,0,0,0,2.494215,2.483439,1.654388,0.929228,0.346264,-0.012084,0.33735,0.106825,85.073593,0.002298,2.386067,-0.000044,1,2.373562,-0.000053,1,0.600878,0.600715,0.106777,0,PSF-00336_20220819055020,PFA-00364,PSA-00381,PSF-00336,RHS-00170,2.0.0,2022-08-18T22:29:00.659Z
37,5:51:52,8/19/22,Night sampling,CH,LCOR-389,,,,0.849341,0.069351,2.916267,0.06774,0.34396,1.567495,1.557829,2.07022,0.502725,15.450625,15.546501,20.532555,0.441786,PSF-00336_20220819055152,79.260704,526.094543,0,0,0,0.5,0.8,0.028264,70.94,70.5,19.03,17.99,100.83,156,152.3,2.4,0,4.044,-12,-176,91,,,,,,,,0:00:00,0000-00-00,0,0,0,0,0,5:43:09,8/19/22,-0.33,0.001,-0.002,-0.019,-0.192,0.059,0.29,1,150,0.005,2,1,rectangular,6000,5,1,2,55537,55537,55537,0,-9999,0,0,0,0,2.494496,2.483698,1.656127,0.920093,0.346394,-0.0114,0.342423,0.106853,79.260704,0.002291,2.386067,-0.000044,1,2.373562,-0.000053,1,0.600878,0.600715,0.106777,0,PSF-00336_20220819055152,PFA-00364,PSA-00381,PSF-00336,RHS-00170,2.0.0,2022-08-18T22:29:00.659Z
38,5:53:05,8/19/22,Night sampling,CH,LCOR-465,,,,0.843808,0.030223,2.913328,0.029913,0.157247,1.560148,1.555718,2.080605,0.520457,15.42958,15.473515,20.635393,0.441786,PSF-00336_20220819055305,83.918091,537.273987,0,0,0,0.5,0.8,0.024899,70.66,70.46,19.02,18.07,100.83,155.7,155.8,-0.1,0,4.041,-45,162,107,,,,,,,,0:00:00,0000-00-00,0,0,0,0,0,5:43:09,8/19/22,-0.33,-0.004,0,-9999,0.125,0.078,-9999,1,150,0.005,2,1,rectangular,6000,5,1,2,55537,55537,55537,0,-9999,0,0,0,0,2.494447,2.483331,1.653035,0.928772,0.346566,-0.010378,0.346409,0.106844,83.918091,0.002287,2.386067,-0.000044,1,2.373562,-0.000053,1,0.600878,0.600715,0.106777,0,PSF-00336_20220819055305,PFA-00364,PSA-00381,PSF-00336,RHS-00170,2.0.0,2022-08-18T22:29:00.659Z
39,5:54:33,8/19/22,Night sampling,CH,LCOR-187,,,,0.841803,0.071238,2.916197,0.069539,0.353618,1.575119,1.565182,2.078519,0.503399,15.524479,15.623043,20.616083,0.441786,PSF-00336_20220819055433,87.575912,553.587219,0,0,0,0.5,0.8,0.038061,71.21,70.76,19.05,18.06,100.82,156,153.5,1.6,0,4.04,-31,-140,46,,,,,,,,0:00:00,0000-00-00,0,0,0,0,0,5:54:06,8/19/22,-0.29,-0.002,-0.002,-9999,0.055,-0.028,-9999,1,150,0.005,2,1,rectangular,6000,5,1,2,55537,55537,55537,0,-9999,0,0,0,0,2.494834,2.484003,1.656054,0.923056,0.34617,-0.010878,0.351154,0.10688,87.575912,0.002137,2.386067,-0.000044,1,2.373562,-0.000053,1,0.600878,0.600715,0.106777,0,PSF-00336_20220819055433,PFA-00364,PSA-00381,PSF-00336,RHS-00170,2.0.0,2022-08-18T22:29:00.659Z
40,5:55:51,8/19/22,Night sampling,CH,LCOR-576,,,,0.839658,0.055243,2.914639,0.054216,0.270798,1.575724,1.568104,2.070214,0.49449,15.553004,15.628576,20.5331,0.441786,PSF-00336_20220819055551,86.616753,540.200134,0,0,0,0.5,0.8,0.062889,71.23,70.88,19.05,17.99,100.82,155.8,155.3,0.3,0,4.037,-27,175,87,,,,,,,,0:00:00,0000-00-00,0,0,0,0,0,5:54:06,8/19/22,-0.29,-0.002,-0.004,-0.017,0.105,0.087,0.39,1,150,0.005,2,1,rectangular,6000,5,1,2,55537,55537,55537,0,-9999,0,0,0,0,2.494993,2.484025,1.654412,0.927563,0.346137,-0.01161,0.355064,0.106948,86.616753,0.002222,2.386067,-0.000044,1,2.373562,-0.000053,1,0.600878,0.600715,0.106777,0,PSF-00336_20220819055551,PFA-00364,PSA-00381,PSF-00336,RHS-00170,2.0.0,2022-08-18T22:29:00.659Z
41,5:57:55,8/19/22,Night sampling,CH,LCOR-050,,,,0.850963,0.029264,2.915039,0.028973,0.144137,1.569503,1.565448,2.062084,0.492581,15.525736,15.56595,20.451254,0.441786,PSF-00336_20220819055755,76.981544,516.52478,0,0,0,0.5,0.8,0.057187,71,70.81,19.04,17.93,100.83,155.9,156.1,-0.1,0,4.035,8,-175,99,,,,,,,,0:00:00,0000-00-00,0,0,0,0,0,5:54:06,8/19/22,-0.29,-0.001,-0.002,-9999,-0.136,0.126,-9999,1,150,0.005,2,1,rectangular,6000,5,1,2,55537,55537,55537,0,-9999,0,0,0,0,2.494905,2.48372,1.654832,0.92954,0.346297,-0.012173,0.361353,0.10693,76.981544,0.002334,2.386067,-0.000044,1,2.373562,-0.000053,1,0.600878,0.600715,0.106777,0,PSF-00336_20220819055755,PFA-00364,PSA-00381,PSF-00336,RHS-00170,2.0.0,2022-08-18T22:29:00.659Z
42,5:59:40,8/19/22,Night sampling,CH,LCOR-097,,,,0.840985,0.06711,2.917315,0.065601,0.316025,1.579144,1.570271,2.056089,0.476945,15.574529,15.662534,20.393053,0.441786,PSF-00336_20220819055940,84.716324,532.757874,0,0,0,0.5,0.8,0.015041,71.5,71.1,19.03,17.88,100.82,156.2,155.3,0.5,0,4.034,-30,173,80,,,,,,,,0:00:00,0000-00-00,0,0,0,0,0,5:54:06,8/19/22,-0.29,0,-0.002,-9999,0.101,-0.052,-9999,1,150,0.005,2,1,rectangular,6000,5,1,2,55537,55537,55537,0,-9999,0,0,0,0,2.495281,2.484394,1.657236,0.927612,0.3465,-0.012519,0.366568,0.106818,84.716324,0.002682,2.386067,-0.000044,1,2.373562,-0.000053,1,0.600878,0.600715,0.106777,0,PSF-00336_20220819055940,PFA-00364,PSA-00381,PSF-00336,RHS-00170,2.0.0,2022-08-18T22:29:00.659Z
43,6:00:46,8/19/22,Night sampling,CH,LCOR-407,,,,0.838371,0.051642,2.915631,0.050744,0.257292,1.570383,1.563148,2.072386,0.502003,15.503235,15.574986,20.553827,0.441786,PSF-00336_20220819060046,85.551025,529.304993,0,0,0,0.5,0.8,0.105851,71.19,70.86,19.01,18.01,100.83,156,155.7,0.1,0,4.031,-17,152,98,,,,,,,,0:00:00,0000-00-00,0,0,0,0,0,5:54:06,8/19/22,-0.29,-0.001,-0.001,-9999,0.24,0.173,-9999,1,150,0.005,2,1,rectangular,6000,5,1,2,55537,55537,55537,0,-9999,0,0,0,0,2.49498,2.483989,1.655456,0.928653,0.346779,-0.010904,0.369818,0.107064,85.551025,0.002151,2.386067,-0.000044,1,2.373562,-0.000053,1,0.600878,0.600715,0.106777,0,PSF-00336_20220819060046,PFA-00364,PSA-00381,PSF-00336,RHS-00170,2.0.0,2022-08-18T22:29:00.659Z